frame_id,path_id,leftdx,leftdy,rightdx,rightdy,face_center_x,face_center_y,face_width,face_height,face_yaw,face_pitch,face_roll,dot_x,dot_y,dot_vx,dot_vy,current_timestamp,elapsed_time,collide_x,collide_y,is_colliding,experiment_name,fixed_speed,radius,valid_face_detected,avg_iris_x,avg_iris_y,left_iris_rel_face_x,left_iris_rel_face_y,right_iris_rel_face_x,right_iris_rel_face_y,avg_iris_rel_face_x,avg_iris_rel_face_y,left_iris_rel_face_x_norm,left_iris_rel_face_y_norm,right_iris_rel_face_x_norm,right_iris_rel_face_y_norm,avg_iris_rel_face_x_norm,avg_iris_rel_face_y_norm,iris_dx,iris_dy,yaw_avg_iris_x_interaction,pitch_avg_iris_y_interaction,roll_avg_iris_x_interaction,roll_avg_iris_y_interaction,yaw_squared,pitch_squared,roll_squared,avg_iris_rel_face_x_norm_squared,avg_iris_rel_face_y_norm_squared,target_dot_x,target_dot_y,ablation,model,model_parameters,pred_dot_x,pred_dot_y,x_error_pixels,y_error_pixels,total_error_pixels
4322,pong_constant_velocity,0.4712139964103699,0.516311764717102,0.5678350925445557,0.5195820927619934,0.5196389138698578,0.5778037786483765,0.2200214564800262,0.3464046716690063,-0.0530565735141435,0.0130385122716118,0.0305941161391006,0.321875,0.7645833333333333,4,3.0,1781103201932,144.10209202766418,0,0,0,HeadStill1,4,10,1,0.5195245444774628,0.5179469287395477,-0.04842491745948796,-0.06149201393127446,0.04819617867469783,-0.0582216858863831,-0.00011436939239506394,-0.05985684990882878,-0.22009178574347896,-0.1775149620813462,0.2190521654352901,-0.16807418885295147,-0.0005198101540944257,-0.17279457546714885,0.09662109613418579,0.0032703280448913574,2.7579345654109157e-05,-0.0022529841926963714,-1.590313222464864e-05,-0.005286497310048536,0.0028149999930617135,0.00017000280225697148,0.0009359999423327758,2.702025962996706e-07,0.0298579653108722,0.253125,0.6958333333333333,RELATIVE_IRIS_TO_FACE,ridge,,0.22595677667549646,0.5585001761716671,17.387662927682257,65.91991543759976,68.17452657251826
4323,pong_constant_velocity,0.4712210297584533,0.5163159370422363,0.5680031776428223,0.5195897221565247,0.5196305394172669,0.5777794659137726,0.2200509905815124,0.3463771045207977,-0.0528764359697852,0.0127824191156333,0.0305498258465736,0.328125,0.7708333333333334,4,3.0,1781103201981,144.15500116348267,0,0,0,HeadStill1,4,10,1,0.5196121037006378,0.5179528295993805,-0.048409509658813576,-0.06146352887153628,0.048372638225555376,-0.05818974375724795,-1.843571662907273e-05,-0.05982663631439211,-0.21999222694232415,-0.1774468528516072,0.21982466836199158,-0.1679953476076262,-8.377929016616163e-05,-0.17272110022961668,0.09678214788436895,0.00327378511428833,4.4299502720651e-06,-0.0022077934932482673,-2.559442724125794e-06,-0.005276599532043373,0.0027959174808667945,0.0001633902384477076,0.0009332918592559763,7.0189694607459075e-09,0.02983257846452929,0.259375,0.7020833333333333,RELATIVE_IRIS_TO_FACE,ridge,,0.2306487688024868,0.5801587075369947,18.38478796640846,58.523820382242505,61.343605866486044
4324,pong_constant_velocity,0.4713357090950012,0.5163199305534363,0.568006694316864,0.5195955038070679,0.5196139693260193,0.5777338206768036,0.2200323939323425,0.3462491929531097,-0.0528925532522955,0.0129482677816993,0.0305851305636197,0.334375,0.7770833333333333,4,3.0,1781103202014,144.18010187149048,0,0,0,HeadStill1,4,10,1,0.5196712017059326,0.5179577171802521,-0.04827826023101811,-0.06141389012336729,0.04839272499084468,-0.058138316869735696,5.723237991328567e-05,-0.05977610349655149,-0.21941431974657305,-0.1773690440283387,0.21993453748623729,-0.16790888289094197,0.00026010886983211795,-0.17263896345964033,0.09667098522186279,0.003275573253631592,-1.3757822248989696e-05,-0.0022353755284304235,7.95546374457089e-06,-0.005280185237781071,0.002797622189546915,0.0001676576385465921,0.000935450211593664,6.765662416534169e-08,0.02980421170441903,0.265625,0.7083333333333334,RELATIVE_IRIS_TO_FACE,ridge,,0.24099290214189467,0.5803420369919178,15.76454262918741,61.435822243879485,63.42618590999324
4325,pong_constant_velocity,0.4714166522026062,0.5163217782974243,0.5680073499679565,0.5196014046669006,0.5195882439613342,0.5777254045009613,0.2199567556381225,0.3462222516536712,-0.052923071586787,0.0128578598917768,0.0306996763344446,0.340625,0.7833333333333333,4,3.0,1781103202047,144.21754837036133,0,0,0,HeadStill1,4,10,1,0.5197120010852814,0.5179615914821625,-0.04817159175872798,-0.06140362620353701,0.04841910600662236,-0.05812399983406069,0.00012375712394718796,-0.05976381301879885,-0.21900481951067102,-0.17735320054306483,0.22013010541481817,-0.16788059657527907,0.0005626429520735716,-0.17261689855917195,0.09659069776535034,0.0032796263694763184,-2.9776793230390797e-05,-0.002219483896626881,1.7272956520515073e-05,-0.005299282915622235,0.002800851506180182,0.0001653245609965625,0.0009424701270396578,3.1656709151806337e-07,0.02979659366818746,0.271875,0.7145833333333333,RELATIVE_IRIS_TO_FACE,ridge,,0.2501146236271225,0.5783320541876239,13.926640878641585,65.40061398994054,66.86696969673335
4326,pong_constant_velocity,0.4714652001857757,0.5163225531578064,0.568077564239502,0.5195990204811096,0.519575572013855,0.5776991724967957,0.2199048995971679,0.3462166786193847,-0.0528650791241483,0.012967603629958,0.0307488130700524,0.346875,0.7895833333333333,4,3.0,1781103202078,144.24911427497864,0,0,0,HeadStill1,4,10,1,0.5197713822126389,0.517960786819458,-0.04811037182807926,-0.0613766193389893,0.048501992225646995,-0.05810015201568608,0.00019581019878389672,-0.05973838567733769,-0.218778070558816,-0.17727804972008163,0.22055893301561666,-0.16781441774910744,0.0008904312284004526,-0.17254623373459455,0.09661236405372625,0.0032764673233032227,-4.7072717344002496e-05,-0.0022375111669123097,2.7379703393822652e-05,-0.005305591887046618,0.0027947165908024604,0.0001681587439036999,0.0009454895052170254,7.928677725107391e-07,0.029772202775993333,0.278125,0.7208333333333333,RELATIVE_IRIS_TO_FACE,ridge,,0.2567219612802575,0.5866753439485577,13.697944780635218,64.39583490469231,65.83659502348006
4327,pong_constant_velocity,0.4714824259281158,0.516323447227478,0.5680832862854004,0.5196189284324646,0.5195418417453765,0.5776445865631104,0.2198385298252105,0.3460891842842102,-0.0527540829685177,0.0128193602487456,0.0309307398789492,0.353125,0.7958333333333333,4,3.0,1781103202108,144.27764439582825,0,0,0,HeadStill1,4,10,1,0.5197828561067581,0.5179711878299713,-0.04805941581726075,-0.061321139335632324,0.04854144454002385,-0.05802565813064575,0.00024101436138157517,-0.05967339873313904,-0.21861233182985976,-0.17718305092552267,0.22080498068545326,-0.16766099343452714,0.0010963244277968785,-0.1724220221800249,0.0966008603572846,0.0032954812049865723,-5.783558982440922e-05,-0.002210340017142943,3.391012569912307e-05,-0.00533314071745276,0.002782993269849249,0.00016433599718711887,0.0009567106694592184,1.201927250984153e-06,0.029729353732648997,0.284375,0.7270833333333333,RELATIVE_IRIS_TO_FACE,ridge,,0.2600779188824207,0.5950638492991605,15.550131915250738,63.36935233640297,65.24937867992982
4328,pong_constant_velocity,0.4715073704719543,0.5163242816925049,0.568108081817627,0.5196219682693481,0.5195338368415833,0.5776009321212768,0.2198363542556762,0.3460127115249634,-0.0527104783254461,0.012664832656633,0.0308700266000013,0.359375,0.8020833333333334,4,3.0,1781103202142,144.31369376182556,0,0,0,HeadStill1,4,10,1,0.5198077261447906,0.5179731249809265,-0.048026466369628984,-0.06127665042877195,0.04857424497604368,-0.05797896385192869,0.00027388930320737526,-0.05962780714035032,-0.2184646135876446,-0.177093634473064,0.22095636970938257,-0.16756309882596543,0.0012458780608691014,-0.1723283666495147,0.09660071134567266,0.0032976865768432617,-6.567082852358958e-05,-0.002182509925606999,3.8460288879387196e-05,-0.005319781262405296,0.002778394525297323,0.00016039798622051772,0.0009529585422847879,1.5522121425549522e-06,0.029697065952089572,0.290625,0.7333333333333333,RELATIVE_IRIS_TO_FACE,ridge,,0.2626339221602697,0.6017977915184987,17.914289817427402,63.137060071120615,65.62933897341246
4329,pong_constant_velocity,0.4715157151222229,0.5163233280181885,0.5681130290031433,0.5196236968040466,0.5195025682449341,0.5775403916835785,0.2197771668434143,0.3457886874675751,-0.0527893559670095,0.0127853818704766,0.0309393660069183,0.365625,0.8083333333333333,4,3.0,1781103202172,144.33762621879578,0,0,0,HeadStill1,4,10,1,0.5198143720626831,0.5179735124111176,-0.047986853122711226,-0.06121706366539004,0.048610460758209184,-0.05791669487953188,0.00031180381774897903,-0.05956687927246096,-0.2183432047491476,-0.17703604575198822,0.22118065877624277,-0.16749157882745078,0.001418727013547596,-0.17226381228971951,0.09659731388092041,0.0033003687858581543,-7.489368533817636e-05,-0.002202458622588164,4.389451433605121e-05,-0.0053297331381787025,0.002786716103411642,0.00016346598957391175,0.0009572443689100516,2.0127863389696806e-06,0.02967482102458772,0.296875,0.7395833333333334,RELATIVE_IRIS_TO_FACE,ridge,,0.26551334024768963,0.6102279927126186,20.071462241478635,62.09056349794308,65.2541314554351
4330,pong_constant_velocity,0.4715270400047302,0.5163351893424988,0.5681023001670837,0.519642174243927,0.5194710731506348,0.5774998843669892,0.2197446823120117,0.3456800878047943,-0.0530397883855064,0.0129564804990456,0.0309488287116646,0.371875,0.8145833333333333,4,3.0,1781103202203,144.36740612983704,0,0,0,HeadStill1,4,10,1,0.519814670085907,0.5179886817932129,-0.04794403314590456,-0.0611646950244904,0.04863122701644895,-0.05785771012306218,0.0003435969352721946,-0.05951120257377629,-0.21818061970675343,-0.17694016928631548,0.22130785733563163,-0.16737356443278506,0.0015636188144391094,-0.17215686685955028,0.09657526016235352,0.0033069849014282227,-8.293401103344677e-05,-0.002230547088242553,4.839217085841207e-05,-0.00532805338397307,0.0028132191519793,0.0001678703869221489,0.0009578299986239551,2.444903796867966e-06,0.029637986806896922,0.303125,0.7458333333333333,RELATIVE_IRIS_TO_FACE,ridge,,0.268290733160953,0.6161558767675744,22.29393077699008,62.24517915156427,66.11718140619394
4331,pong_constant_velocity,0.4715287685394287,0.5163360834121704,0.5681387782096863,0.5196511149406433,0.5194573819637298,0.5774463653564453,0.2197737395763397,0.3455138802528381,-0.0528977814143908,0.0131369052476029,0.0310184874430166,0.378125,0.8208333333333333,4,3.0,1781103202235,144.40625739097595,0,0,0,HeadStill1,4,10,1,0.5198337733745575,0.5179935991764069,-0.0479286134243011,-0.061110281944274925,0.048681396245956465,-0.057795250415802024,0.00037639141082768113,-0.059452766180038474,-0.21808161127838802,-0.17686780088509904,0.22150687395469265,-0.1672733052020252,0.0017126313381523274,-0.1720705530435621,0.09661000967025757,0.0033150315284729004,-9.059439816901742e-05,-0.0022604745512359043,5.3123233656994685e-05,-0.005337368288894653,0.0027981752785646683,0.00017257827948449664,0.0009621465632525785,2.9331061004214315e-06,0.029608275224717324,0.309375,0.7520833333333333,RELATIVE_IRIS_TO_FACE,ridge,,0.2693799896504644,0.6271732583496263,25.596806623702797,59.95683599217935,65.19216740931634
4332,pong_constant_velocity,0.4715794622898102,0.5163664817810059,0.5681466460227966,0.5196576714515686,0.5194459736347199,0.5774068236351013,0.2197437584400177,0.3453637957572937,-0.0529284614092023,0.0133322851665006,0.031000930714309,0.384375,0.8270833333333333,4,3.0,1781103202270,144.442773103714,0,0,0,HeadStill1,4,10,1,0.5198630541563034,0.5180120766162872,-0.04786651134490971,-0.06104034185409546,0.04870067238807674,-0.057749152183532715,0.0004170805215835127,-0.05939474701881409,-0.2178287543019705,-0.17674215084655365,0.22162481663897698,-0.16721251972801182,0.0018980311685032425,-0.17197733528728273,0.09656718373298645,0.003291189670562744,-0.00010045986945558702,-0.0022928508762249398,5.884073274836797e-05,-0.00533145745567254,0.002801422027145417,0.00017774982776089194,0.0009610577051533871,3.602522316609784e-06,0.029576203852514464,0.315625,0.7583333333333333,RELATIVE_IRIS_TO_FACE,ridge,,0.2745421576373471,0.6324293211096821,26.293019112097866,60.433925867352585,65.90585899424885
4333,pong_constant_velocity,0.4716881811618805,0.5163775682449341,0.5682204961776733,0.5196777582168579,0.5194386780261994,0.5773332715034485,0.219738095998764,0.3450105190277099,-0.05283258108061,0.013717806698874,0.0310936456995624,0.390625,0.8333333333333334,4,3.0,1781103202305,144.47211408615112,0,0,0,HeadStill1,4,10,1,0.5199543386697769,0.518027663230896,-0.04775049686431887,-0.060955703258514404,0.04878181815147398,-0.057655513286590576,0.0005156606435775535,-0.05930560827255249,-0.21730640048652944,-0.17667780583478565,0.22199981168377034,-0.16711232972823248,0.0023467055986204507,-0.17189506778150906,0.09653231501579285,0.003300189971923828,-0.0001239825138114364,-0.0023580233123165852,7.296763244468379e-05,-0.005344844335100507,0.0027912816236392297,0.00018817822062767238,0.0009668148028899153,5.5070271665965675e-06,0.029547914327609597,0.321875,0.7645833333333333,RELATIVE_IRIS_TO_FACE,ridge,,0.28408766378743755,0.6443890195912643,24.183895176039982,57.69327059619313,62.5569681008539
4334,pong_constant_velocity,0.4716901779174804,0.5163924098014832,0.5683208703994751,0.5196920037269592,0.5194301843643189,0.5773047745227814,0.2197391390800476,0.34492227435112,-0.0527049097395955,0.0139521418917126,0.0311509417050036,0.396875,0.8395833333333333,4,3.0,1781103202337,144.50462889671326,0,0,0,HeadStill1,4,10,1,0.5200055241584778,0.5180422067642212,-0.04774000644683846,-0.06091236472129824,0.04889068603515623,-0.057612770795822166,0.0005753397941589133,-0.0592625677585602,-0.2172576286324268,-0.17659735970927115,0.22249419932606593,-0.16703116443811494,0.0026182853468196777,-0.17181426207369305,0.09663069248199468,0.0032995939254760742,-0.0001379964928766366,-0.0023971769634720604,8.156205420584491e-05,-0.005352176061945823,0.002777807510658908,0.00019466226336648166,0.0009703811691085325,6.85541815737064e-06,0.029520140651927675,0.328125,0.7708333333333334,RELATIVE_IRIS_TO_FACE,ridge,,0.2866707022370897,0.6604588664967084,26.530750568262604,52.979744081579994,59.25144731283006
4335,pong_constant_velocity,0.4716885983943939,0.5163965225219727,0.5683668851852417,0.5196963548660278,0.5194316804409027,0.5772585213184357,0.219752162694931,0.3446569740772247,-0.0526458438069891,0.0142721830414425,0.0311907518562742,0.403125,0.8458333333333333,4,3.0,1781103202381,144.55548477172852,0,0,0,HeadStill1,4,10,1,0.5200277417898178,0.5180464386940002,-0.04774308204650879,-0.060861998796463035,0.04893520474433899,-0.05756216645240786,0.0005960613489151001,-0.05921208262443545,-0.21725874862128303,-0.17658716233304633,0.2226835991845817,-0.16701291171140273,0.0027124252816493285,-0.17180003702222452,0.09667828679084778,0.0032998323440551758,-0.00014279791771583896,-0.002451961574907786,8.460258388860886e-05,-0.005358572323658926,0.0027715848701498924,0.00020369520876843886,0.0009728630013596725,7.357250908530439e-06,0.029515252720837715,0.334375,0.7770833333333333,RELATIVE_IRIS_TO_FACE,ridge,,0.28646691060206453,0.671137460806173,30.661177214678688,50.85401881303697,59.38214392918674
4336,pong_constant_velocity,0.4717865586280823,0.5163975954055786,0.5684479475021362,0.5197003483772278,0.5194343328475952,0.5772448122501374,0.2197763323783874,0.3445556461811065,-0.0525104854992969,0.0144246325846013,0.0312891730308122,0.409375,0.8520833333333333,4,3.0,1781103202416,144.59056115150452,0,0,0,HeadStill1,4,10,1,0.5201172530651093,0.5180489718914032,-0.04764777421951294,-0.06084721684455874,0.049013614654541016,-0.05754446387290957,0.0006829202175140381,-0.05919584035873415,-0.2168011975441747,-0.17659619208972155,0.2230158811641092,-0.167010649340967,0.00310734180996724,-0.17180342071534427,0.09666138887405396,0.00330275297164917,-0.00016316802705364374,-0.002478201220596521,9.722615555794215e-05,-0.005375586958047833,0.0027573510873718696,0.00020807002520074156,0.0009790123489521057,9.655573123970482e-06,0.029516415369493586,0.340625,0.7833333333333333,RELATIVE_IRIS_TO_FACE,ridge,,0.2958074047578695,0.6759092050738353,28.683260954963536,51.56358156455903,59.00451171542281
4337,pong_constant_velocity,0.471794068813324,0.5164030194282532,0.5685166120529175,0.5197296738624573,0.5194330930709838,0.5772345900535584,0.2197812795639038,0.3444607853889465,-0.0525859174608753,0.0145630983962362,0.0316041425310569,0.415625,0.8583333333333333,4,3.0,1781103202446,144.62198185920715,0,0,0,HeadStill1,4,10,1,0.5201553404331207,0.5180663466453552,-0.04763902425765987,-0.0608315706253052,0.04908351898193364,-0.057504916191101096,0.0007222473621368852,-0.05916824340820315,-0.21675650530664622,-0.17659940242725586,0.22332892431073878,-0.1669418318742766,0.0032862095020462783,-0.17177061715076625,0.0967225432395935,0.0033266544342041016,-0.0001728083416337497,-0.0025015123991488264,0.0001038578334895841,-0.005428663067080424,0.0027652787152019896,0.00021208383489845737,0.0009988218251233598,1.0799172891339248e-05,0.02950514491635511,0.346875,0.7895833333333333,RELATIVE_IRIS_TO_FACE,ridge,,0.2969462936894286,0.6858261610911353,31.95437203876569,49.80344267625506,59.17317631155923
4338,pong_constant_velocity,0.4718793332576751,0.516423225402832,0.5686265230178833,0.5197945237159729,0.5194779336452484,0.5772256255149841,0.2197524607181549,0.3444111943244934,-0.0522705182453945,0.0146705903385118,0.0319630478439069,0.421875,0.8645833333333334,4,3.0,1781103202478,144.65311694145203,0,0,0,HeadStill1,4,10,1,0.5202529281377792,0.5181088745594025,-0.0475986003875733,-0.0608024001121521,0.04914858937263489,-0.05743110179901123,0.0007749944925308228,-0.059116750955581665,-0.21660097942025516,-0.1765401338536768,0.22365431984457987,-0.16675154895629193,0.003526670212162472,-0.17164584140498437,0.09674718976020819,0.003371298313140869,-0.00018434087967032778,-0.002518145822561692,0.00011272312872103039,-0.005486324241035171,0.0027322070776421192,0.00021522622088043574,0.0010216364274718813,1.2437402785354096e-05,0.029462294871625046,0.353125,0.7958333333333333,RELATIVE_IRIS_TO_FACE,ridge,,0.29955594108700734,0.6958100536265746,34.28419770431532,48.011174259244186,58.99558513973813
4339,pong_constant_velocity,0.4720044136047363,0.516431450843811,0.5687750577926636,0.5198847055435181,0.5195157349109649,0.5772041320800781,0.2198425233364105,0.3440618515014648,-0.0523804643572572,0.0147042824475088,0.0325964837324703,0.428125,0.8708333333333333,4,3.0,1781103202510,144.6807358264923,0,0,0,HeadStill1,4,10,1,0.5203897356987,0.5181580781936646,-0.04751132130622865,-0.06077268123626711,0.04925932288169865,-0.05731942653656008,0.0008740007877350298,-0.059046053886413596,-0.21611523750740816,-0.17663300713150498,0.22406639031183456,-0.16659628093163723,0.003975576402213325,-0.1716146440315711,0.0967706441879273,0.0034532546997070312,-0.00020824253803568786,-0.0025234701979689016,0.00012958981152193946,-0.005594033952428789,0.0027437130462818916,0.0002162159222961154,0.001062530751721201,1.5805207729835444e-05,0.029451586046082858,0.359375,0.8020833333333334,RELATIVE_IRIS_TO_FACE,ridge,,0.3056900245526837,0.7097579261679241,34.358384286282444,44.31619543939645,56.07516160464135
4340,pong_constant_velocity,0.4720599055290222,0.5164471864700317,0.5690038800239563,0.5199052095413208,0.5195640563964844,0.5772077322006226,0.219813585281372,0.343990683555603,-0.052247916135645,0.0147723023576008,0.0326878527057257,0.434375,0.8770833333333333,4,3.0,1781103202540,144.70436453819275,0,0,0,HeadStill1,4,10,1,0.5205318927764893,0.5181761980056763,-0.04750415086746218,-0.060760545730590865,0.0494398236274719,-0.0573025226593018,0.0009678363800048606,-0.059031534194946333,-0.2161110681377764,-0.17663427199890064,0.2249170419335826,-0.166581607388862,0.004402986897903123,-0.17160793969388133,0.09694397449493408,0.0034580230712890625,-0.0002300468901879861,-0.002535044372122939,0.00014392418718389742,-0.005609495055846652,0.002729844740517393,0.00021822091694437818,0.001068495714511219,1.9386293623106562e-05,0.02944928496597881,0.365625,0.8083333333333333,RELATIVE_IRIS_TO_FACE,ridge,,0.31005707888485573,0.7305629640294452,35.56346951369232,37.32977726586631,51.55843902379621
4341,pong_constant_velocity,0.4722197949886322,0.5164671540260315,0.569108784198761,0.5199393033981323,0.5196275472640991,0.5772010684013367,0.2198132276535034,0.3439508080482483,-0.0519958219604138,0.0148463652516221,0.0327928785429661,0.440625,0.8833333333333333,4,3.0,1781103202573,144.7437834739685,0,0,0,HeadStill1,4,10,1,0.5206642895936966,0.5182032287120819,-0.0474077522754669,-0.060733914375305176,0.04948123693466189,-0.057261765003204346,0.0010367423295974953,-0.05899783968925476,-0.21567287203237875,-0.17657732207162719,0.2251058101089448,-0.1664824213186545,0.0047164690382830166,-0.17152987169514083,0.09688898921012878,0.00347214937210083,-0.00024523668439636783,-0.002546595126749936,0.00015466659632407508,-0.005624958248989312,0.0027035655013390504,0.00022041456118457214,0.0010753728831337265,2.2245080189082325e-05,0.029422496883751478,0.371875,0.8145833333333333,RELATIVE_IRIS_TO_FACE,ridge,,0.31797598829062024,0.7330693127841619,34.495367494003055,39.12672986360229,52.16158901304321
4342,pong_constant_velocity,0.4723572134971618,0.5164766311645508,0.5691787004470825,0.519972026348114,0.5196830451488494,0.5772015929222107,0.2197760641574859,0.3439462184906006,-0.0518382970633379,0.0149260197627225,0.0329614036677796,0.446875,0.8895833333333333,4,3.0,1781103202605,144.77731680870056,0,0,0,HeadStill1,4,10,1,0.5207679569721222,0.5182243287563324,-0.04732583165168763,-0.060724961757659957,0.04949565529823308,-0.057229566574096724,0.0010849118232727495,-0.05897726416587834,-0.2153365958196849,-0.17655364916821426,0.22520947963956148,-0.16639102811287462,0.004936441909938429,-0.17147233864054445,0.09682148694992071,0.0034953951835632324,-0.00025589674216329944,-0.0025593995153090116,0.0001627120544760255,-0.005651968971789188,0.002687209042426867,0.00022278606595718263,0.0010864541317503146,2.4368458730196564e-05,0.029402762918857555,0.378125,0.8208333333333333,RELATIVE_IRIS_TO_FACE,ridge,,0.32406082523046637,0.7319051988168231,34.60107185250152,42.68550456792488,54.94803430114956
4343,pong_constant_velocity,0.4724727571010589,0.5164797306060791,0.569307267665863,0.51999831199646,0.5197526574134826,0.5772078216075898,0.219766080379486,0.343904048204422,-0.0518281081717345,0.0150091793365486,0.0333007887836243,0.453125,0.8958333333333334,4,3.0,1781103202640,144.82044863700867,0,0,0,HeadStill1,4,10,1,0.520890012383461,0.5182390213012695,-0.04727990031242374,-0.060728091001510665,0.04955461025238039,-0.057209509611129805,0.0011373549699783547,-0.058968800306320235,-0.2151373773396165,-0.17658439774913307,0.22548797299351717,-0.1663531099627896,0.005175297826950471,-0.17146875385596133,0.09683451056480413,0.0035185813903808594,-0.0002682258955961315,-0.002573605277238633,0.00017234149982762748,-0.005710044755148634,0.0026861527966610126,0.0002252754643566775,0.001108942533611558,2.678370759763827e-05,0.029401533548916253,0.384375,0.8270833333333333,RELATIVE_IRIS_TO_FACE,ridge,,0.32842412123254705,0.7363296200290602,35.8085624111699,43.56178238605107,56.39044268849394
4344,pong_constant_velocity,0.4725932478904724,0.5165072679519653,0.5693688988685608,0.5200099349021912,0.5197996914386749,0.5772054374217988,0.2198006808757782,0.3439181745052337,-0.0512430906078638,0.0150178349544656,0.0331259859052649,0.459375,0.9020833333333332,4,3.0,1781103202671,144.84142780303955,0,0,0,HeadStill1,4,10,1,0.5209810733795166,0.5182586014270782,-0.04720644354820247,-0.06069816946983342,0.04956920742988591,-0.05719550251960759,0.0011813819408417192,-0.0589468359947205,-0.21476931378200945,-0.1764901427272733,0.22551888819084864,-0.16630554909996972,0.005374787204419594,-0.17139784591362153,0.09677565097808838,0.00350266695022583,-0.0002754207077140602,-0.0025740245614816943,0.00017804512517740161,-0.005677722627927392,0.002625854335045739,0.00022553536671956876,0.0010973309421958089,2.8888337492792595e-05,0.02937722158382955,0.390625,0.8333333333333334,RELATIVE_IRIS_TO_FACE,ridge,,0.3348922364046527,0.7362846958230072,35.668968701022266,46.58334600495658,58.6709762421933
4345,pong_constant_velocity,0.4727203845977783,0.5165091156959534,0.5694637894630432,0.5200296640396118,0.5198563575744629,0.5772044241428376,0.2197383046150207,0.3439137041568756,-0.0511654786243248,0.0150033852321381,0.0332136025958246,0.465625,0.9083333333333332,4,3.0,1781103202699,144.86308431625366,0,0,0,HeadStill1,4,10,1,0.5210920870304108,0.5182693898677826,-0.04713597297668459,-0.0606953084468842,0.0496074318885803,-0.05717476010322575,0.0012357294559478538,-0.058935034275054976,-0.2145095772636026,-0.1764841178133366,0.22575685981523988,-0.16624739796548385,0.005623641275818645,-0.17136575788941022,0.09674340486526489,0.0035205483436584473,-0.00028773629748876954,-0.0025710664812121304,0.00018678138647651652,-0.005691674181071165,0.002617906202856238,0.00022510156842393963,0.0011031433973933667,3.162534119909116e-05,0.029366222977011962,0.396875,0.8395833333333333,RELATIVE_IRIS_TO_FACE,ridge,,0.34089920809743696,0.7374581168279002,35.824506817640334,49.020103922607916,60.71545007088755
4346,pong_constant_velocity,0.4728851318359375,0.516602098941803,0.569706380367279,0.520038902759552,0.5199281871318817,0.5772065162658692,0.2197534739971161,0.3438796997070312,-0.0506153421150811,0.0156177201428793,0.0326823093035988,0.471875,0.9145833333333332,4,3.0,1781103202784,144.95916748046875,0,0,0,HeadStill1,4,10,1,0.5212957561016083,0.5183205008506775,-0.047043055295944214,-0.060604417324066184,0.04977819323539734,-0.05716761350631716,0.0013675689697265625,-0.05888601541519167,-0.21407194298026047,-0.17623725859166917,0.22651833468110386,-0.16624305503520748,0.006223195850421692,-0.17124015681343832,0.09682124853134155,0.0034368038177490234,-0.00031498918701824703,-0.0026743808463350455,0.0002033884116403543,-0.0055965237701735525,0.002561912857426702,0.00024391318246129784,0.0010681333414161007,3.872816659270577e-05,0.029323191305490947,0.403125,0.8458333333333333,RELATIVE_IRIS_TO_FACE,ridge,,0.3540052322503305,0.7570936524271561,31.4366513597885,42.595046834965075,52.939598256784684
4347,pong_constant_velocity,0.4729968905448913,0.5166080594062805,0.5697423219680786,0.5200517177581787,0.5199473261833191,0.5772030770778656,0.2197183966636657,0.3438576161861419,-0.0505252880762984,0.0157336049472232,0.0326936664633001,0.478125,0.9208333333333332,4,3.0,1781103202822,144.99500131607056,0,0,0,HeadStill1,4,10,1,0.521369606256485,0.5183298885822296,-0.04695043563842777,-0.06059501767158504,0.049794995784759544,-0.057151359319686845,0.0014222800731659158,-0.05887318849563594,-0.21368458087490697,-0.17622124116794455,0.22663097070871863,-0.1662064615334396,0.006473194916905953,-0.17121385135069206,0.09674543142318731,0.0034436583518981934,-0.0003270600379507037,-0.0026938110986443864,0.00021163247556525285,-0.00559760854995657,0.0025528047351929413,0.0002475463246352864,0.0010688758268135139,4.190225243225706e-05,0.029314182894336877,0.409375,0.8520833333333333,RELATIVE_IRIS_TO_FACE,ridge,,0.3616479553167593,0.7548868588644809,30.545308597274037,46.65430774504914,55.76414895318008
4348,pong_constant_velocity,0.4729945063591003,0.5166316628456116,0.5698150396347046,0.5200691819190979,0.5199611186981201,0.5772013127803802,0.2197265028953552,0.3438368737697601,-0.050492770858499,0.0157116716971833,0.0326551665765213,0.484375,0.9270833333333334,4,3.0,1781103202854,145.02569723129272,0,0,0,HeadStill1,4,10,1,0.5214047729969025,0.5183504223823547,-0.04696661233901983,-0.060569649934768655,0.04985392093658447,-0.057132130861282326,0.0014436542987823486,-0.05885089039802549,-0.21375031952283197,-0.17615809354335377,0.2268907847289572,-0.1661605649600382,0.006570232603062742,-0.171159329251696,0.0968205332756043,0.003437519073486328,-0.0003317492493134864,-0.00268919918911275,0.000214552040099505,-0.005589236407839788,0.002549519908968886,0.0002468566275200708,0.001066359904140354,4.3167956458348613e-05,0.029295515989890476,0.415625,0.8583333333333333,RELATIVE_IRIS_TO_FACE,ridge,,0.3614143874858228,0.7648127550419197,34.69479200907344,44.889877579878515,56.73473100041407
4349,pong_constant_velocity,0.472994327545166,0.5166604518890381,0.56986403465271,0.5200951099395752,0.5199819803237915,0.5771906197071075,0.2197390794754028,0.3437334597110748,-0.0504406487260654,0.0158794847934081,0.0325427653297004,0.490625,0.9333333333333332,4,3.0,1781103202885,145.05715322494507,0,0,0,HeadStill1,4,10,1,0.521429181098938,0.5183777809143066,-0.04698765277862549,-0.060530167818069414,0.04988205432891846,-0.057095509767532304,0.0014472007751464844,-0.05881283879280086,-0.2138338376244396,-0.17609622906069652,0.22700582972290037,-0.16610401604337205,0.006585996049230383,-0.1711001225520343,0.09686970710754395,0.0034346580505371094,-0.00033220191323048425,-0.002716981794215291,0.0002143265238924383,-0.0055680711360938315,0.002544259043906323,0.00025215803730407904,0.0010590315753039503,4.3375343960478213e-05,0.029275251937321157,0.421875,0.8645833333333334,RELATIVE_IRIS_TO_FACE,ridge,,0.35966575879849694,0.7733966013283224,39.81391436896196,43.76963136240525,59.16864378181982
4350,pong_constant_velocity,0.4729940891265869,0.5167016386985779,0.5698755979537964,0.5202175974845886,0.5199973165988923,0.5772108495235443,0.2197530567646026,0.3437279760837555,-0.0502811415018995,0.0158672528613579,0.0327762607414154,0.496875,0.9395833333333332,4,3.0,1781103202915,145.0801990032196,0,0,0,HeadStill1,4,10,1,0.5214348435401917,0.5184596180915833,-0.04700322747230534,-0.06050921082496641,0.04987828135490413,-0.056993252038955666,0.001437526941299394,-0.05875123143196104,-0.21389111043740178,-0.17603806869022953,0.2269742219722161,-0.165809169885481,0.0065415557674071475,-0.17092361928785527,0.09688150882720947,0.003515958786010742,-0.0003289168911835656,-0.00271208828721887,0.0002144077374870464,-0.0056022371126451635,0.0025281931907340407,0.00025176971336627045,0.0010742832681892485,4.279195185809772e-05,0.02921488363045969,0.428125,0.8708333333333333,RELATIVE_IRIS_TO_FACE,ridge,,0.35479306593544363,0.7798575262579337,46.93243780131606,43.66838739619183,64.10601980904981
4351,pong_constant_velocity,0.4729874730110168,0.5167226195335388,0.5699251294136047,0.5202729105949402,0.5200094103813171,0.5772119164466858,0.2197829484939575,0.3436986804008484,-0.0503424414199264,0.0158804413292597,0.0328367527677261,0.503125,0.9458333333333332,4,3.0,1781103202931,145.09620690345764,0,0,0,HeadStill1,4,10,1,0.5214563012123108,0.5184977650642395,-0.047021937370300304,-0.06048929691314697,0.04991571903228764,-0.056939005851745605,0.0014468908309936968,-0.05871415138244629,-0.21394714900788397,-0.17599513353571294,0.22711369149969823,-0.1656654722348196,0.006583271245907249,-0.17083030288526627,0.09693765640258795,0.003550291061401367,-0.0003314179470485716,-0.002712860602229135,0.00021617325030473652,-0.005609512421079255,0.0025343614081187213,0.0002521884168120596,0.0010782523323287678,4.3339460297189185e-05,0.02918299238387181,0.434375,0.8770833333333333,RELATIVE_IRIS_TO_FACE,ridge,,0.3524192261844128,0.7887812012566922,52.45169524197582,42.38502339678776,67.4364185148007
4352,pong_constant_velocity,0.4729715883731842,0.5167326331138611,0.5699283480644226,0.5202893018722534,0.5200153410434722,0.5772137939929962,0.2197929322719574,0.3436829745769501,-0.0502439516492617,0.0158777418172443,0.0328201969031143,0.509375,0.9520833333333332,4,3.0,1781103202946,145.1164903640747,0,0,0,HeadStill1,4,10,1,0.5214499682188034,0.5185109674930573,-0.04704375267028804,-0.06048116087913513,0.04991300702095036,-0.0569244921207428,0.0014346271753311601,-0.058702826499938965,-0.21403668463602976,-0.1759795031854232,0.22709103624988683,-0.16563081291560855,0.006527175806928534,-0.17080515805051588,0.0969567596912384,0.003556668758392334,-0.000327951105649548,-0.0027120002005796983,0.00021422319520463846,-0.00560585891928549,0.0025244546773333476,0.00025210268521506837,0.0010771653247591936,4.260402401455316e-05,0.02917440201666171,0.440625,0.8833333333333333,RELATIVE_IRIS_TO_FACE,ridge,,0.3501448210462276,0.7909515896363027,57.90731453041435,44.343236974574666,72.93544914174193
4353,pong_constant_velocity,0.4730106890201568,0.5168039202690125,0.56993168592453,0.5203306674957275,0.5200286746025086,0.577248215675354,0.2198366522789001,0.3436947464942932,-0.0502787638680381,0.0158615465430598,0.0327958581585709,0.515625,0.9583333333333334,4,3.0,1781103202978,145.1504602432251,0,0,0,HeadStill1,4,10,1,0.5214711874723434,0.51856729388237,-0.04701798558235176,-0.06044429540634155,0.04990301132202146,-0.056917548179626465,0.0014425128698348777,-0.05868092179298401,-0.21387690795041944,-0.1758662134472953,0.2270004047764837,-0.1656049360781317,0.006561748413032242,-0.1707355747627135,0.09692099690437322,0.003526747226715088,-0.0003299165990203218,-0.002708130265654846,0.00021519817022603308,-0.005599419692540029,0.0025279540960979332,0.0002515886587376523,0.0010755683123571012,4.3056542235931146e-05,0.029150636489554134,0.446875,0.8895833333333333,RELATIVE_IRIS_TO_FACE,ridge,,0.35247843319530725,0.7911613333670185,60.413802755003374,47.24255998383107,76.69215759871625
4354,pong_constant_velocity,0.4729952812194824,0.5168172717094421,0.5699442625045776,0.5203614234924316,0.5200351893901825,0.5772513508796692,0.2198198139667511,0.3436892032623291,-0.0503160347666036,0.0158934526134258,0.0329872408111835,0.521875,0.9645833333333332,4,3.0,1781103203011,145.1793577671051,0,0,0,HeadStill1,4,10,1,0.52146977186203,0.5185893476009369,-0.04703990817070003,-0.06043407917022703,0.049909073114395186,-0.05688992738723753,0.0014345824718475786,-0.05866200327873228,-0.21399302083789795,-0.1758393247101976,0.22704536931093255,-0.16552724144942807,0.006526174236517298,-0.17068328307981281,0.09694898128509521,0.003544151782989502,-0.00032837120977751707,-0.0027127466715329463,0.00021528048111573776,-0.005630370561397188,0.0025317033546340623,0.00025260183597521134,0.0010881580563350105,4.2590950165382135e-05,0.029132783122903516,0.453125,0.8958333333333334,RELATIVE_IRIS_TO_FACE,ridge,,0.3499397987955222,0.7950167734022069,66.03852877086581,48.391948766940715,81.87104486741748
4355,pong_constant_velocity,0.4730264246463775,0.5169146656990051,0.5699843764305115,0.5204653739929199,0.5200545430183411,0.5773098409175873,0.2198335528373718,0.3435629904270172,-0.0502572396524587,0.0157378157523628,0.032963741262259,0.528125,0.9708333333333332,4,3.0,1781103203041,145.2088406085968,0,0,0,HeadStill1,4,10,1,0.5215054005384445,0.5186900198459625,-0.04702811837196358,-0.060395175218582176,0.04992983341217039,-0.05684446692466738,0.0014508575201034324,-0.05861982107162478,-0.21392601641430878,-0.1757906850956492,0.2271256161603832,-0.16545572967407707,0.006599799873037339,-0.17062320738486314,0.09695795178413397,0.003550708293914795,-0.00033168772387750405,-0.002685236600900164,0.00021755409539749262,-0.0056243792615713875,0.0025257901374846673,0.00024767884465531865,0.0010866082380051564,4.355735836414368e-05,0.029112278898298014,0.459375,0.9020833333333332,RELATIVE_IRIS_TO_FACE,ridge,,0.35040119866953623,0.8012401464710341,69.7432328514968,48.40472969390356,84.8948548813058
4356,pong_constant_velocity,0.4730121493339538,0.5169560313224792,0.5699979066848755,0.5205664038658142,0.5200816035270691,0.5773182153701782,0.2199048995971679,0.3435345888137817,-0.0501624657938218,0.0158672929931774,0.0330214342535279,0.534375,0.9770833333333332,4,3.0,1781103203072,145.2492790222168,0,0,0,HeadStill1,4,10,1,0.5215050280094147,0.5187612175941467,-0.04706945419311531,-0.060362184047699,0.049916303157806374,-0.056751811504364036,0.0014234244823455589,-0.058556997776031516,-0.2140445808114941,-0.17570918404180672,0.22699039893763806,-0.16519969662539652,0.006472909063072099,-0.1704544403336016,0.09698575735092169,0.003610372543334961,-0.00032469707946287333,-0.002704650546761332,0.00021374474105530022,-0.00562865009469792,0.0025162729745163426,0.0002517709869313366,0.0010904151201600659,4.1898551738800925e-05,0.02905471622944135,0.465625,0.9083333333333332,RELATIVE_IRIS_TO_FACE,ridge,,0.34375134051164796,0.8085246035681697,77.99914207254531,47.908190287278494,91.53721025165227
4357,pong_constant_velocity,0.4730316996574402,0.5170429944992065,0.5700234174728394,0.5206258296966553,0.520098227262497,0.5773433566093444,0.2199349105358123,0.3434599041938782,-0.0498258690523891,0.0157608045813642,0.0326531016643694,0.540625,0.9791666666666666,4,-3.0,1781103203104,145.28132271766663,0,1,1,HeadStill1,4,10,1,0.5215275585651398,0.5188344120979309,-0.04706652760505681,-0.060300362110137895,0.04992519021034236,-0.056717526912689165,0.0014293313026427779,-0.05850894451141353,-0.21400206702233493,-0.17556739409216532,0.22699983289926431,-0.16513579771254744,0.00649888293846469,-0.17035159590235638,0.09699171781539917,0.0035828351974487305,-0.0003238124902787473,-0.002684878213140561,0.00021220868529452325,-0.005562507979687216,0.0024826172268258262,0.00024840296105195075,0.0010662250483036435,4.223547944786744e-05,0.029019666226479723,0.471875,0.9145833333333332,RELATIVE_IRIS_TO_FACE,ridge,,0.34405333165828167,0.8150220605462153,81.80586773869973,47.7894109378166,94.74190094285177
4358,pong_constant_velocity,0.473033607006073,0.5170549750328064,0.5701090097427368,0.5206289887428284,0.5201176643371582,0.5773783206939698,0.2199406623840332,0.3435186147689819,-0.0497987529512259,0.0156438531768161,0.0325990840507035,0.546875,0.9729166666666668,4,-3.0,1781103203135,145.30845832824707,0,0,0,HeadStill1,4,10,1,0.5215713083744049,0.5188419818878174,-0.04708405733108523,-0.060323345661163374,0.04999134540557859,-0.0567493319511414,0.001453644037246682,-0.05853633880615239,-0.21407617254562572,-0.17560429424090512,0.22729468298746439,-0.16520016051329278,0.0066092552209193415,-0.17040222737709895,0.09707540273666382,0.0035740137100219727,-0.00032913266793816224,-0.002665747426089769,0.00021545566645930054,-0.005554956532693138,0.0024799157954972302,0.00024473014221777913,0.0010627002809448312,4.368225457524957e-05,0.02903691909507653,0.478125,0.9208333333333332,RELATIVE_IRIS_TO_FACE,ridge,,0.34490981795777287,0.8202781058380956,85.25771650702538,48.26650919771404,97.97210896028176
4359,pong_constant_velocity,0.4730119705200195,0.5170587301254272,0.5703792572021484,0.520633339881897,0.5201576352119446,0.5773863852024078,0.2198957800865173,0.3435285985469818,-0.0499226263194116,0.0156752804546787,0.0326618706786966,0.553125,0.9666666666666668,4,-3.0,1781103203183,145.3626492023468,0,0,0,HeadStill1,4,10,1,0.521695613861084,0.5188460350036621,-0.047145664691925104,-0.06032765507698057,0.05022162199020386,-0.05675304532051084,0.0015379786491394043,-0.058540350198745705,-0.21440003318560938,-0.17561173531412017,0.22838828324291394,-0.16520616888520118,0.006994125028652397,-0.17040895209966067,0.09736728668212896,0.0035746097564697266,-0.0003491650902366575,-0.00267120811615009,0.00022844120719647974,-0.005565875155971321,0.0024922686186276076,0.0002457144173328321,0.0010667977962319007,4.891778491642189e-05,0.029039210955704445,0.484375,0.9270833333333334,RELATIVE_IRIS_TO_FACE,ridge,,0.3451931971992622,0.8484798862381269,89.07635379247218,37.729654605699125,96.73739525967724
4360,pong_constant_velocity,0.4730161130428314,0.5170594453811646,0.5703233480453491,0.520628809928894,0.5201834619045258,0.5773914456367493,0.219870239496231,0.3435362577438354,-0.0496460173272657,0.015790180481513,0.0326443838825087,0.559375,0.9604166666666668,4,-3.0,1781103203214,145.3864028453827,0,0,0,HeadStill1,4,10,1,0.5216697305440903,0.5188441276550293,-0.04716734886169438,-0.06033200025558472,0.05013988614082332,-0.056762635707855225,0.0014862686395644698,-0.05854731798171997,-0.21452356091724414,-0.1756204684058932,0.2280430674714035,-0.1652304022531368,0.006759753277079659,-0.170425435329515,0.0973072350025177,0.003569364547729492,-0.0003355948283219379,-0.002691048382493464,0.00022066798092803457,-0.0055634333342403485,0.0024647270364591663,0.00024932979963875415,0.0010656557990685936,4.569426436698919e-05,0.029044829007254705,0.490625,0.9333333333333332,RELATIVE_IRIS_TO_FACE,ridge,,0.3417789315729491,0.8401240749830756,95.26148379331258,44.74044400812366,105.24475105461366
4361,pong_constant_velocity,0.4730810523033142,0.5170579552650452,0.5703042149543762,0.5206207036972046,0.5202061653137207,0.5773307979106903,0.2198162674903869,0.3433588445186615,-0.0496668162547571,0.0160531301787633,0.0325596279669027,0.565625,0.9541666666666668,4,-3.0,1781103203245,145.4302749633789,0,0,0,HeadStill1,4,10,1,0.5216926336288452,0.5188393294811249,-0.04712511301040645,-0.06027284264564514,0.05009804964065556,-0.05671009421348572,0.0014864683151245561,-0.05849146842956543,-0.21438409178986914,-0.1755389204397795,0.2279087345696975,-0.16516275455597296,0.006762321389914189,-0.17035083749787622,0.09722316265106201,0.003562748432159424,-0.0003358629739284816,-0.00273466417041476,0.00022017866864823435,-0.005546559892781147,0.002466792636883804,0.00025770298853632106,0.0010601293733431122,4.5728990580490965e-05,0.02901940783622783,0.496875,0.9395833333333332,RELATIVE_IRIS_TO_FACE,ridge,,0.3434272060501687,0.8394422750722405,98.20658812789205,48.06770796532453,109.3390986827729
4362,pong_constant_velocity,0.4731310307979584,0.517040491104126,0.5703033804893494,0.5206007361412048,0.5202439308166504,0.577306866645813,0.2198058366775512,0.3433890342712402,-0.0491589677118444,0.0159149830796554,0.0326252010820627,0.571875,0.9479166666666666,4,-3.0,1781103203281,145.45367860794067,0,0,0,HeadStill1,4,10,1,0.5217172056436539,0.5188206136226654,-0.04711290001869206,-0.06026637554168701,0.05005944967269893,-0.056706130504608154,0.0014732748270034346,-0.05848625302314758,-0.21433870268157754,-0.17550465440616417,0.2277439405246335,-0.16513669102330605,0.006702618921527989,-0.1703206727147351,0.09717234969139099,0.0035602450370788574,-0.0003294938271481917,-0.0027106506243705347,0.00021867429009128888,-0.005556746195750423,0.0024166041064941604,0.0002532866864257177,0.0010644037456450253,4.492510040722502e-05,0.029009131553999912,0.503125,0.9458333333333332,RELATIVE_IRIS_TO_FACE,ridge,,0.3435168121148354,0.8351417406071573,102.14924024650536,53.13196450856444,115.14110011406709
4363,pong_constant_velocity,0.4732735753059387,0.5170395970344543,0.5703595280647278,0.5205671787261963,0.5202949166297912,0.5772919416427612,0.2197825908660888,0.343343436717987,-0.0486713999793889,0.0159841933133542,0.0324368421701307,0.578125,0.9416666666666668,4,-3.0,1781103203308,145.47499465942383,0,0,0,HeadStill1,4,10,1,0.5218165516853333,0.5188033878803253,-0.047021341323852495,-0.06025234460830686,0.05006461143493657,-0.05672476291656492,0.0015216350555420366,-0.05848855376243589,-0.2139447851584125,-0.17548709662076792,0.2277915141492042,-0.1652128894807685,0.006923364495395851,-0.1703499930507682,0.09708595275878906,0.0035275816917419434,-0.00033696984255851146,-0.002722907219852024,0.0002245720814234418,-0.00552561583827063,0.002368905175953658,0.00025549443587867716,0.0010521487299699694,4.793297593610784e-05,0.029019120132396773,0.509375,0.9520833333333332,RELATIVE_IRIS_TO_FACE,ridge,,0.35221249294290974,0.8304901105885409,100.58400451653779,58.36474691750027,116.29095256006269
4364,pong_constant_velocity,0.4733187556266784,0.5170023441314697,0.5703698396682739,0.5205632448196411,0.5203233361244202,0.5772888362407684,0.2197945713996887,0.3433775007724762,-0.0483952585205154,0.0160160658408897,0.0328452195582868,0.584375,0.9354166666666668,4,-3.0,1781103203339,145.50263166427612,0,0,0,HeadStill1,4,10,1,0.5218442976474762,0.5187827944755554,-0.047004580497741755,-0.060286492109298706,0.05004650354385376,-0.05672559142112732,0.0015209615230560303,-0.05850604176521301,-0.21385686670894577,-0.17556913373178032,0.2276967121989507,-0.16519891268800654,0.006919922745002596,-0.17038402320989343,0.09705108404159551,0.0035609006881713867,-0.0003348914501863952,-0.0027288817339653324,0.00022728638188599295,-0.005596300651553184,0.002342101047267518,0.00025651436501971395,0.0010788084478320658,4.788533079680427e-05,0.029030715365189502,0.515625,0.9583333333333334,RELATIVE_IRIS_TO_FACE,ridge,,0.35257872293888276,0.8251996145201916,104.34961731911503,63.90418503030803,122.36252489644694
4365,pong_constant_velocity,0.4733191132545471,0.5169766545295715,0.5704230070114136,0.5205446481704712,0.5203712821006775,0.5772520005702972,0.2197489738464355,0.3434173166751861,-0.0484108608713955,0.0161166112840621,0.0329154637356082,0.590625,0.9291666666666668,4,-3.0,1781103203373,145.54773116111755,0,0,0,HeadStill1,4,10,1,0.5218710601329803,0.5187606513500214,-0.04705216884613039,-0.06027534604072571,0.05005172491073606,-0.05670735239982605,0.0014997780323028342,-0.05849134922027588,-0.21411779942068487,-0.1755163218591351,0.227767719489038,-0.16512664910894692,0.0068249600341765675,-0.17032148548404102,0.09710389375686646,0.003567993640899658,-0.00033040219066735645,-0.002745005174870315,0.0002246467245019141,-0.00560621067884487,0.0023436114503096114,0.0002597451592815578,0.0010834277529301385,4.658007946810741e-05,0.029009408417490397,0.521875,0.9645833333333332,RELATIVE_IRIS_TO_FACE,ridge,,0.34826192471155204,0.830103697365146,111.11236818460668,64.55022526472987,128.50171183808786
4366,pong_constant_velocity,0.4733437001705169,0.5169695019721985,0.5704275369644165,0.5205392837524414,0.5204093277454376,0.5772669970989227,0.2196944057941436,0.3435158431529999,-0.0485096356739491,0.0160768522633841,0.0329698330605474,0.596875,0.9229166666666668,4,-3.0,1781103203406,145.5823872089386,0,0,0,HeadStill1,4,10,1,0.5218856185674667,0.51875439286232,-0.047065627574920665,-0.06029749512672422,0.050018209218978926,-0.0567277133464813,0.0014762908220291582,-0.05851260423660276,-0.21423224347687447,-0.175530458269325,0.22767173684490286,-0.1651385600571253,0.0067197466840143135,-0.17033450916322515,0.09708383679389959,0.00356978178024292,-0.00032597246346276193,-0.002738442739173216,0.00022154892638111886,-0.0056159003315618145,0.002353184753219275,0.0002584651786986784,0.0010870098920403642,4.5154995497321365e-05,0.029013845011876833,0.528125,0.9708333333333332,RELATIVE_IRIS_TO_FACE,ridge,,0.3467259048903368,0.8248370188112166,116.09542087018443,70.07823097061596,135.6064349616059
4367,pong_constant_velocity,0.4734364151954651,0.5169636011123657,0.5704610347747803,0.520524799823761,0.5204623162746429,0.5772572040557862,0.2197195589542389,0.3435181975364685,-0.0481663437351857,0.0161266702514315,0.0329869568660304,0.603125,0.9166666666666666,4,-3.0,1781103203447,145.61919832229614,0,0,0,HeadStill1,4,10,1,0.5219487249851227,0.5187442004680634,-0.04702590107917781,-0.060293602943420455,0.049998718500137374,-0.05673240423202519,0.0014864087104797807,-0.05851300358772282,-0.2140269130464748,-0.175517924874534,0.22755696608230028,-0.16515108366127107,0.0067650265179127304,-0.17033450426790253,0.09702461957931519,0.0035611987113952637,-0.00032584659263943093,-0.0027469283827695158,0.00022315763794393905,-0.0056188169450819715,0.0023199966688160624,0.0002600694933984057,0.00108813932328135,4.576558378806244e-05,0.029013843344192106,0.534375,0.9770833333333332,RELATIVE_IRIS_TO_FACE,ridge,,0.3498250130823459,0.8204556334619646,118.11199162729864,75.18129593825692,140.0095347650396
4368,pong_constant_velocity,0.473465621471405,0.516949474811554,0.5704753398895264,0.5204927921295166,0.5204894781112671,0.5772471606731415,0.2197262048721313,0.3436320722103119,-0.0480013802105797,0.0162037605181928,0.032945579686458,0.609375,0.9104166666666668,4,-3.0,1781103203478,145.65341305732727,0,0,0,HeadStill1,4,10,1,0.5219704806804657,0.5187211334705353,-0.04702385663986214,-0.06029768586158757,0.049985861778259255,-0.05675436854362492,0.0014810025691985862,-0.058526027202606246,-0.21401113502650318,-0.17547164244310517,0.2274915708503344,-0.16516027309955814,0.0067402179119157414,-0.17031595777133166,0.0970097184181214,0.0035433173179626465,-0.0003235397626920271,-0.002759758992153296,0.0002220603863211116,-0.005611157958630823,0.002304132502120633,0.00026256185493094377,0.0010854112208767538,4.54305375001098e-05,0.02900752547156603,0.540625,0.9791666666666666,RELATIVE_IRIS_TO_FACE,ridge,,0.3504543788750938,0.8176839592046594,121.70919751993999,77.51169958176347,144.29550350929622
4369,pong_constant_velocity,0.4734787344932556,0.5169387459754944,0.5704706907272339,0.5204839110374451,0.5204973161220551,0.5771838545799255,0.2197059690952301,0.3435126543045044,-0.0481042127836145,0.0163859018258303,0.033028295112507,0.615625,0.9041666666666668,4,-3.0,1781103203509,145.6832094192505,0,0,0,HeadStill1,4,10,1,0.5219747126102448,0.5187113285064697,-0.04701858162879946,-0.06024510860443111,0.04997337460517881,-0.056699943542480424,0.001477396488189675,-0.058472526073455766,-0.21400683687547514,-0.175379585280813,0.22745568787419382,-0.16505925234890076,0.006724425499359339,-0.17021941881485686,0.09699195623397827,0.0035451650619506836,-0.0003234731950687448,-0.002789198685550136,0.00022209630985490752,-0.005622057198496519,0.0023140152875312605,0.0002684977786457488,0.001090868278038854,4.521789829643409e-05,0.028974650541667646,0.546875,0.9729166666666668,RELATIVE_IRIS_TO_FACE,ridge,,0.3495183647641706,0.8219893400267688,126.30824655093082,72.44511678715101,145.6092994731953
4370,pong_constant_velocity,0.4734402596950531,0.516923725605011,0.5704485177993774,0.5204318761825562,0.5204772830009461,0.577157998085022,0.2197886109352111,0.3434250950813293,-0.0479200887553183,0.0165456755338729,0.0329906909350441,0.621875,0.8979166666666667,4,-3.0,1781103203541,145.7156856060028,0,0,0,HeadStill1,4,10,1,0.5219443887472153,0.5186778008937836,-0.04703702330589299,-0.06023427248001101,0.04997123479843135,-0.05672612190246584,0.0014671057462691817,-0.058480197191238426,-0.21401027544441656,-0.17539274674094207,0.22736042742249968,-0.1651775629187973,0.0066750759890415465,-0.1702851548298697,0.09700825810432434,0.003508150577545166,-0.000319870233843365,-0.0028174829200503337,0.00022021536892240348,-0.005617824913818363,0.0022963349063175836,0.00027375937887220026,0.001088385688371601,4.455663945947898e-05,0.028997033955432693,0.553125,0.9666666666666668,RELATIVE_IRIS_TO_FACE,ridge,,0.3491329673113594,0.8223975514933131,130.55490092072998,69.24917528320978,147.78372857600505
4371,pong_constant_velocity,0.4733897149562835,0.5168974995613098,0.5704572200775146,0.5204266309738159,0.520478755235672,0.5771485984325408,0.2197851836681366,0.3434241712093353,-0.0479256497188317,0.0163742863110836,0.0330660368338914,0.628125,0.8916666666666667,4,-3.0,1781103203581,145.7522177696228,0,0,0,HeadStill1,4,10,1,0.5219234675168991,0.5186620652675629,-0.04708904027938848,-0.060251098871231035,0.04997846484184265,-0.05672196745872493,0.0014447122812271118,-0.05848653316497798,-0.21425028453231618,-0.17544221452042943,0.22739686876863666,-0.1651659101551439,0.006573292118160366,-0.17030406233778667,0.09706750512123113,0.0035291314125061035,-0.00031502929555451097,-0.0027886074766595484,0.00021735271929901868,-0.005631280398222591,0.0022968679009721534,0.00026811725219733984,0.0010933627919002629,4.320816927066919e-05,0.029003473648752727,0.559375,0.9604166666666668,RELATIVE_IRIS_TO_FACE,ridge,,0.34450724971073304,0.8252625338600841,137.51536018513082,64.87398374715971,152.0496894244543
4372,pong_constant_velocity,0.4733543992042541,0.5168554782867432,0.5704240798950195,0.5203783512115479,0.5204767525196076,0.577105051279068,0.2197860181331634,0.3434149920940399,-0.0479620789459232,0.0162863796575486,0.0330217341949779,0.634375,0.8854166666666666,4,-3.0,1781103203613,145.7875316143036,0,0,0,HeadStill1,4,10,1,0.5218892395496368,0.5186169147491455,-0.04712235331535347,-0.06024957299232481,0.049947327375411965,-0.05672670006752012,0.0014124870300292747,-0.05848813652992246,-0.2144010413928728,-0.17544246065239227,0.22725433367925466,-0.16518410588243965,0.006426646143191052,-0.17031328326741596,0.09706968069076544,0.0035228729248046875,-0.0003082353096772421,-0.0027737867920167554,0.0002122190007056348,-0.005624039969930587,0.0023003610168149695,0.0002652461623498128,0.0010904349292437726,4.1301780649792425e-05,0.02900661445732707,0.565625,0.9541666666666668,RELATIVE_IRIS_TO_FACE,ridge,,0.3412256616278375,0.8237052045675948,143.61557655818402,62.62150180755459,156.67445968878647
4373,pong_constant_velocity,0.4733053743839264,0.516845166683197,0.5703357458114624,0.5203661322593689,0.5204472184181214,0.5770632684230804,0.2197441458702087,0.343560129404068,-0.0478722812708943,0.0164471786650983,0.0330358761634272,0.640625,0.8791666666666667,4,-3.0,1781103203651,145.83179235458374,0,0,0,HeadStill1,4,10,1,0.5218205600976944,0.518605649471283,-0.04714184403419497,-0.0602181017398834,0.04988852739334104,-0.056697136163711526,0.0013733416795730369,-0.05845761895179746,-0.21453059285016512,-0.1752767414879282,0.22703005318060684,-0.16502827208667792,0.0062497301652208554,-0.17015250678730306,0.09703037142753601,0.003520965576171875,-0.0002991888403366455,-0.0027985286794451245,0.0002064653117930716,-0.005621137143122051,0.0022917553140796173,0.00027050968604166466,0.0010913691138852975,3.90591271380715e-05,0.028951875566003215,0.571875,0.9479166666666666,RELATIVE_IRIS_TO_FACE,ridge,,0.3377077959089877,0.8218794269167917,149.8670106182479,60.49787507993996,161.6171827524476
4374,pong_constant_velocity,0.4733169078826904,0.5168145298957825,0.570334792137146,0.520355224609375,0.5204319059848785,0.5770376980304718,0.2197373807430267,0.3435450494289398,-0.0481297510986804,0.0164641227524643,0.033098390302703,0.646875,0.8729166666666667,4,-3.0,1781103203696,145.8782935142517,0,0,0,HeadStill1,4,10,1,0.5218258500099182,0.5185848772525787,-0.047114998102188166,-0.06022316813468931,0.049902886152267456,-0.05668247342109678,0.0013939440250396729,-0.058452820777893044,-0.21441502487524802,-0.17529918268886094,0.22710238791643206,-0.16499283533670261,0.00634368152059214,-0.17014600901278176,0.09701788425445562,0.0035406947135925293,-0.0003053198126353981,-0.002801304778228336,0.0002099656469246031,-0.005631559014752273,0.002316472940820927,0.00027106733800821267,0.001095503440630064,4.0242295234702203e-05,0.02894966438297761,0.578125,0.9416666666666668,RELATIVE_IRIS_TO_FACE,ridge,,0.33961979018257904,0.8221893740493706,152.64333428314941,57.34910045630214,163.0610524442435
4375,pong_constant_velocity,0.4733192026615143,0.516775369644165,0.5702918767929077,0.5203198790550232,0.5204171955585479,0.5770098924636841,0.2196781933307647,0.3435568809509277,-0.0480218423733414,0.0165666538513319,0.0331623263767407,0.653125,0.8666666666666667,4,-3.0,1781103203744,145.92006969451904,0,0,0,HeadStill1,4,10,1,0.521805539727211,0.5185476243495941,-0.04709799289703365,-0.06023452281951902,0.049874681234359786,-0.056690013408660866,0.0013883441686630693,-0.058462268114089944,-0.214395384625935,-0.17532619605677677,0.2270351836375162,-0.16500910009911066,0.006319899505790612,-0.1701676480779437,0.09697267413139343,0.0035445094108581543,-0.00030349321788243497,-0.0028191085224025577,0.00020958257007923053,-0.005643155084323122,0.0023060973449300476,0.00027445401982985015,0.001099739890717472,3.994112976329242e-05,0.0289570284523789,0.584375,0.9354166666666668,RELATIVE_IRIS_TO_FACE,ridge,,0.3404526006379045,0.8170260904303159,156.1103355917411,56.82747659344841,166.1318722417374
4376,pong_constant_velocity,0.4733096659183502,0.516762375831604,0.5702908039093018,0.5203173160552979,0.5204096138477325,0.5769717812538147,0.2196488082408905,0.343527615070343,-0.0481266360668264,0.0164390623164615,0.0332482329544994,0.659375,0.8604166666666667,4,-3.0,1781103203775,145.94765424728394,0,0,0,HeadStill1,4,10,1,0.521800234913826,0.5185398459434509,-0.047099947929382324,-0.06020940542221065,0.049881190061569214,-0.0566544651985168,0.0013906210660934448,-0.058431935310363725,-0.2144329676189173,-0.17526801639280618,0.22709518977181176,-0.16491967767342103,0.006331111076447224,-0.1700938470331136,0.09698113799095154,0.0035549402236938477,-0.0003046950786748291,-0.0027961833510240243,0.00021049825593052874,-0.005655319850283947,0.0023161730991087554,0.00027024276984450457,0.0011054449945966597,4.008296746231273e-05,0.028931916798524245,0.590625,0.9291666666666668,RELATIVE_IRIS_TO_FACE,ridge,,0.3395604658600536,0.8211263405965981,160.68130184956567,51.859356513633,168.8427482069613
4377,pong_constant_velocity,0.4733016490936279,0.5167486071586609,0.5702131390571594,0.5203122496604919,0.5203717827796936,0.5769362866878509,0.2196040153503418,0.3435620963573456,-0.0482435950606132,0.0164298222307001,0.0334896070734165,0.665625,0.8541666666666666,4,-3.0,1781103203807,145.9712212085724,0,0,0,HeadStill1,4,10,1,0.5217573940753937,0.5185304284095764,-0.047070133686065774,-0.06018767952919002,0.049841356277465776,-0.056624037027358964,0.0013856112957000288,-0.05840585827827449,-0.21434094211603447,-0.1751871886202364,0.22696012150939474,-0.16481455893876495,0.006309589696680267,-0.17000087377950068,0.09691148996353155,0.0035636425018310547,-0.0003043972903252601,-0.0027930841352608823,0.00021130567973629935,-0.005693262465012952,0.0023274444643724226,0.00026993905853240724,0.0011215537819318285,3.9810922140453786e-05,0.02890029708579372,0.596875,0.9229166666666668,RELATIVE_IRIS_TO_FACE,ridge,,0.34036384279857335,0.8178742770432494,164.1671406089131,50.420347019240346,171.73544028314964
4378,pong_constant_velocity,0.4733014702796936,0.5167046785354614,0.5702170133590698,0.520293653011322,0.5203688621520997,0.5769003808498383,0.2195602059364318,0.3435975015163421,-0.0482386974296131,0.0163601281231625,0.0336583236728523,0.671875,0.8479166666666667,4,-3.0,1781103203823,145.98798084259033,0,0,0,HeadStill1,4,10,1,0.5217592418193817,0.5184991657733917,-0.04706739187240605,-0.060195702314376875,0.04984815120697017,-0.05660672783851628,0.00139037966728206,-0.05840121507644658,-0.21437122236222086,-0.17519248625732223,0.22703635535411598,-0.1647471996776204,0.006332566495947563,-0.1699698429674713,0.09691554307937622,0.0035889744758605957,-0.0003054747591509197,-0.002780728408021641,0.00021314357280046318,-0.005720899989223027,0.0023269719297057613,0.0002676537922062925,0.0011328827524664895,4.0101398425597596e-05,0.028889747518386855,0.603125,0.9166666666666666,RELATIVE_IRIS_TO_FACE,ridge,,0.3399421946833696,0.8186826156944735,168.43699540264345,47.03234446665269,174.88013851292547
4379,pong_constant_velocity,0.4732992053031921,0.516675591468811,0.5702171921730042,0.5202535390853882,0.5203683555126191,0.5768488466739654,0.2195596396923065,0.3435945808887481,-0.0482463552294433,0.0160935512776732,0.0336874663296127,0.678125,0.8416666666666667,4,-3.0,1781103203839,146.00887751579285,0,0,0,HeadStill1,4,10,1,0.5217581987380981,0.5184645652770996,-0.04706915020942698,-0.060173255205154375,0.04984883666038509,-0.056595307588577226,0.0013898432254790816,-0.0583842813968658,-0.21437978369609464,-0.17512864521385252,0.22704006282686204,-0.16471536249213575,0.006330139565383823,-0.16992200385299414,0.09691798686981207,0.0035779476165771484,-0.0003054061621234618,-0.0027346484822131445,0.0002132463634706167,-0.005724241783458059,0.002327710792925631,0.00025900239272709676,0.0011348453877087891,4.00706669172377e-05,0.028873487393416955,0.609375,0.9104166666666668,RELATIVE_IRIS_TO_FACE,ridge,,0.33979758324400133,0.8208836607231327,172.52954672383913,42.97584285289636,177.80148357550405
