frame_id,path_id,leftdx,leftdy,rightdx,rightdy,face_center_x,face_center_y,face_width,face_height,face_yaw,face_pitch,face_roll,dot_x,dot_y,dot_vx,dot_vy,current_timestamp,elapsed_time,collide_x,collide_y,is_colliding,experiment_name,fixed_speed,radius,valid_face_detected
0,pong_constant_velocity,0.4528380036354065,0.5102974772453308,0.5540980100631714,0.5147197842597961,0.5015705585479736,0.5782713294029236,0.2332243025302887,0.3746299147605896,0.002639824711090075,0.03858376607951923,0.041680559550664895,0.4390625,0.7,4,3.0,1781103057868,0.03110957145690918,0,0,0,HeadStill1,4,10,1
1,pong_constant_velocity,0.45259228348731995,0.5101121068000793,0.5537991523742676,0.5145558714866638,0.5014974176883698,0.5781681656837463,0.23326605558395386,0.37460583448410034,0.002570425099430058,0.03828440901387672,0.04196679162544493,0.4453125,0.70625,4,3.0,1781103057902,0.06549429893493652,0,0,0,HeadStill1,4,10,1
2,pong_constant_velocity,0.45245522260665894,0.5100551247596741,0.5536273717880249,0.5145025849342346,0.501395982503891,0.5780214190483093,0.2331661581993103,0.37450528144836426,0.0024232600241469635,0.03855673804693056,0.04205870760903931,0.4515625,0.7125,4,3.0,1781103057931,0.09443902969360352,0,0,0,HeadStill1,4,10,1
3,pong_constant_velocity,0.4521377980709076,0.5098451375961304,0.5534197092056274,0.5142085552215576,0.5011459290981293,0.5777502119541168,0.23292505741119385,0.37445369362831116,0.0013526674879229773,0.03836311771956422,0.04110251396379427,0.4578125,0.71875,4,3.0,1781103057998,0.16170859336853027,0,0,0,HeadStill1,4,10,1
4,pong_constant_velocity,0.4520551562309265,0.5097720623016357,0.5532537698745728,0.5140702724456787,0.5010720193386078,0.5776786148548126,0.23285022377967834,0.3744753897190094,0.0011238094921169508,0.03819965748554214,0.040728311930066055,0.4640625,0.725,4,3.0,1781103058026,0.19026613235473633,0,0,0,HeadStill1,4,10,1
5,pong_constant_velocity,0.45194047689437866,0.5095822215080261,0.5531167984008789,0.5138435959815979,0.5009761869907379,0.5775013029575348,0.23284360766410828,0.3746393620967865,0.0008290738371687465,0.038178881219358085,0.04066800288080574,0.4703125,0.73125,4,3.0,1781103058060,0.22365236282348633,0,0,0,HeadStill1,4,10,1
6,pong_constant_velocity,0.45192283391952515,0.5094690918922424,0.5530085563659668,0.5136809945106506,0.5009234488010407,0.5773037016391754,0.23279333114624023,0.3745419681072235,0.0010922710429882652,0.03854385061582841,0.04037084542973799,0.4765625,0.7375,4,3.0,1781103058091,0.255232572555542,0,0,0,HeadStill1,4,10,1
7,pong_constant_velocity,0.4518715739250183,0.5094042420387268,0.5528886914253235,0.513521134853363,0.50089151263237,0.577202558517456,0.2327684760093689,0.3745458126068115,0.0007936839199560997,0.03868162695525472,0.039713962764005205,0.4828125,0.74375,4,3.0,1781103058142,0.3157775402069092,0,0,0,HeadStill1,4,10,1
8,pong_constant_velocity,0.45186781883239746,0.5093666315078735,0.5528402328491211,0.513468861579895,0.5008649587631225,0.5771250903606415,0.2327631115913391,0.3745010197162628,0.0005716858163276542,0.038793406327736,0.0396882421743983,0.4890625,0.75,4,3.0,1781103058169,0.3330049514770508,0,0,0,HeadStill1,4,10,1
9,pong_constant_velocity,0.4518471360206604,0.5093371272087097,0.5528311133384705,0.5134269595146179,0.5008534073829651,0.5770287811756134,0.23277774453163147,0.3744221031665802,0.0006043613108898341,0.0384010581110184,0.039472861146322535,0.4953125,0.75625,4,3.0,1781103058185,0.34947848320007324,0,0,0,HeadStill1,4,10,1
10,pong_constant_velocity,0.45183825492858887,0.5092354416847229,0.5528292655944824,0.5133599638938904,0.5008453845977783,0.5769086599349975,0.2327621579170227,0.37426894903182983,0.0006216228466305993,0.03809989216763752,0.03965999254607863,0.5015625,0.7625,4,3.0,1781103058205,0.3692741394042969,0,0,0,HeadStill1,4,10,1
11,pong_constant_velocity,0.4518393576145172,0.5090147852897644,0.5527936220169067,0.5132147669792175,0.5008097887039185,0.5767716050148011,0.23275020718574524,0.37426966428756714,0.00032171114219171524,0.03751232441442011,0.040458539339837514,0.5078125,0.76875,4,3.0,1781103058239,0.40424513816833496,0,0,0,HeadStill1,4,10,1
12,pong_constant_velocity,0.45194268226623535,0.5090044140815735,0.5528192520141602,0.513176679611206,0.5007700324058533,0.5766524910926819,0.23279184103012085,0.3741610646247864,0.00014786464252986546,0.037299870758203145,0.04015222480939349,0.5140625,0.775,4,3.0,1781103058270,0.4377317428588867,0,0,0,HeadStill1,4,10,1
13,pong_constant_velocity,0.4519777297973633,0.5090379118919373,0.5528932809829712,0.5131771564483643,0.5006836533546448,0.5765234887599945,0.23279345035552979,0.37401995062828064,-0.0005988796674335945,0.036699801522339356,0.040027630664034836,0.5203125,0.78125,4,3.0,1781103058302,0.46992015838623047,0,0,0,HeadStill1,4,10,1
14,pong_constant_velocity,0.45200157165527344,0.5090650916099548,0.5529168844223022,0.5131776928901672,0.5006101131439209,0.576427835226059,0.23278075456619263,0.3741215765476227,-0.001132658697044333,0.03641158194365415,0.03991158182075347,0.5265625,0.7875,4,3.0,1781103058332,0.49784421920776367,0,0,0,HeadStill1,4,10,1
15,pong_constant_velocity,0.45200204849243164,0.5091773867607117,0.5529236793518066,0.513181746006012,0.50047088265419,0.5763535082340241,0.23277202248573303,0.37396082282066345,-0.0024130875575328853,0.036454409663722064,0.03941673556370671,0.5328125,0.79375,4,3.0,1781103058365,0.5283584594726562,0,0,0,HeadStill1,4,10,1
16,pong_constant_velocity,0.4520006775856018,0.509334146976471,0.5528959035873413,0.5132039785385132,0.5003480672836303,0.5763121485710144,0.2326919138431549,0.37381744384765625,-0.002976685628364805,0.03634055401351103,0.03886955227333426,0.5390625,0.8,4,3.0,1781103058398,0.5613598823547363,0,0,0,HeadStill1,4,10,1
17,pong_constant_velocity,0.4517603814601898,0.5096438527107239,0.5528219938278198,0.5133032202720642,0.5000492691993713,0.5763496100902558,0.23255842924118042,0.3734680712223053,-0.003946373910950736,0.035587773188368615,0.0372817345317687,0.5453125,0.80625,4,3.0,1781103058462,0.6253817081451416,0,0,0,HeadStill1,4,10,1
18,pong_constant_velocity,0.45171794295310974,0.509810209274292,0.5527957677841187,0.5133957266807556,0.4998382031917572,0.5763928592205048,0.23251751065254211,0.3733333647251129,-0.004905349184496833,0.03542643008627213,0.03661873250711843,0.5515625,0.8125,4,3.0,1781103058491,0.6549794673919678,0,0,0,HeadStill1,4,10,1
19,pong_constant_velocity,0.4517166018486023,0.5100303292274475,0.5527402758598328,0.5136343836784363,0.49964568614959715,0.5764832079410553,0.23230871558189392,0.37319543957710266,-0.005178007352674225,0.03566807409561184,0.036823469613328684,0.5578125,0.81875,4,3.0,1781103058542,0.7055230140686035,0,0,0,HeadStill1,4,10,1
20,pong_constant_velocity,0.45169657468795776,0.5100751519203186,0.552722156047821,0.5137064456939697,0.49959365129470823,0.5765116155147553,0.23226022720336914,0.37311920523643494,-0.005340571974090764,0.035643651900912496,0.03705204695481041,0.5640625,0.825,4,3.0,1781103058561,0.725623369216919,0,0,0,HeadStill1,4,10,1
21,pong_constant_velocity,0.45169201493263245,0.5101237297058105,0.5527211427688599,0.5137568712234497,0.4995468854904175,0.5765322148799896,0.23220595717430115,0.3730211555957794,-0.0053195524016500465,0.035573046582542595,0.03703363456605304,0.5703125,0.83125,4,3.0,1781103058576,0.7402524948120117,0,0,0,HeadStill1,4,10,1
22,pong_constant_velocity,0.45165377855300903,0.5102553963661194,0.5526972413063049,0.5138722062110901,0.499442458152771,0.5765663027763367,0.2322145700454712,0.3729201555252075,-0.005284510900394618,0.035572731477766864,0.03674736570922611,0.5765625,0.8375,4,3.0,1781103058605,0.7705376148223877,0,0,0,HeadStill1,4,10,1
23,pong_constant_velocity,0.45159491896629333,0.5104168653488159,0.5526682138442993,0.5139361619949341,0.49928481578826905,0.57666095495224,0.23209062218666077,0.372628390789032,-0.005943948054289416,0.03533785468739778,0.03571672722378569,0.5828125,0.84375,4,3.0,1781103058639,0.8019988536834717,0,0,0,HeadStill1,4,10,1
24,pong_constant_velocity,0.4515960216522217,0.5106046199798584,0.5526611804962158,0.514040470123291,0.4991478383541107,0.5767168998718262,0.23202532529830933,0.372389554977417,-0.00579412079772109,0.03510338270648531,0.034988015876465405,0.5890625,0.85,4,3.0,1781103058670,0.8342423439025879,0,0,0,HeadStill1,4,10,1
25,pong_constant_velocity,0.4515957832336426,0.5107455253601074,0.5526027679443359,0.5141037106513977,0.4989917755126953,0.5767671763896942,0.2320619821548462,0.3722340166568756,-0.006285326225151887,0.03493138286071506,0.034281893421412885,0.5953125,0.85625,4,3.0,1781103058704,0.8706948757171631,0,0,0,HeadStill1,4,10,1
26,pong_constant_velocity,0.45158129930496216,0.5108965039253235,0.5525416731834412,0.5141561627388,0.49883773922920227,0.5768290400505066,0.23194736242294312,0.372112512588501,-0.006932154264074064,0.03478609363557206,0.033402099310153914,0.6015625,0.8625,4,3.0,1781103058733,0.9033830165863037,0,0,0,HeadStill1,4,10,1
27,pong_constant_velocity,0.4515666961669922,0.511013925075531,0.552513062953949,0.5141937732696533,0.49873449802398684,0.576854008436203,0.2318621575832367,0.3718733489513397,-0.007244920085506394,0.03477396496024723,0.032766012388788374,0.6078125,0.86875,4,3.0,1781103058764,0.9281558990478516,0,0,0,HeadStill1,4,10,1
28,pong_constant_velocity,0.45152416825294495,0.5111318230628967,0.5525112748146057,0.5142239928245544,0.49865083694458007,0.5769481837749482,0.23177310824394226,0.37169817090034485,-0.007559777112426812,0.03455823592474768,0.0318991308927068,0.6140625,0.875,4,3.0,1781103058799,0.9679996967315674,0,0,0,HeadStill1,4,10,1
29,pong_constant_velocity,0.4515232443809509,0.5112528800964355,0.552526593208313,0.5142887830734253,0.4985770046710968,0.5769548654556275,0.23172634840011597,0.37147021293640137,-0.007265178100394498,0.034558704131229946,0.03134209645611557,0.6203125,0.88125,4,3.0,1781103058862,1.027134656906128,0,0,0,HeadStill1,4,10,1
30,pong_constant_velocity,0.45152372121810913,0.5112929344177246,0.5525264143943787,0.5143064856529236,0.4985147535800934,0.5769607901573182,0.23161250352859497,0.3714258670806885,-0.0072238422178318926,0.03464531447685402,0.03113273662218888,0.6265625,0.8875,4,3.0,1781103058892,1.055929183959961,0,0,0,HeadStill1,4,10,1
31,pong_constant_velocity,0.451526015996933,0.5113402605056763,0.5526890754699707,0.5143986344337463,0.4985010981559753,0.5769607126712799,0.23162755370140076,0.3713339865207672,-0.00703931778813301,0.034595981139818044,0.031234057663824134,0.6328125,0.89375,4,3.0,1781103058940,1.1036880016326904,0,0,0,HeadStill1,4,10,1
32,pong_constant_velocity,0.45153823494911194,0.5113740563392639,0.5527650713920593,0.5144310593605042,0.49849514961242675,0.5769687831401825,0.23163887858390808,0.37124350666999817,-0.006949041307242923,0.034543884035028075,0.031168236769597863,0.6390625,0.9,4,3.0,1781103058966,1.1294670104980469,0,0,0,HeadStill1,4,10,1
33,pong_constant_velocity,0.45153388381004333,0.5113869905471802,0.5527735948562622,0.5144492387771606,0.498493617773056,0.5769708514213562,0.23161524534225464,0.37122833728790283,-0.006839543071428994,0.034560187586160834,0.03115679840813192,0.6453125,0.90625,4,3.0,1781103058981,1.1450507640838623,0,0,0,HeadStill1,4,10,1
34,pong_constant_velocity,0.4515320658683777,0.5114176869392395,0.5528032183647156,0.5145069360733032,0.4984899342060089,0.576984703540802,0.23161661624908447,0.3712537884712219,-0.006757925227786124,0.034601568087878426,0.031234082736231454,0.6515625,0.9125,4,3.0,1781103059006,1.1709628105163574,0,0,0,HeadStill1,4,10,1
35,pong_constant_velocity,0.4515383839607239,0.511458158493042,0.552980363368988,0.5146132707595825,0.49849872589111327,0.5770110785961151,0.2316262125968933,0.3710801303386688,-0.006675942597650103,0.03442553329216522,0.03160264780186344,0.6578125,0.91875,4,3.0,1781103059036,1.200639009475708,0,0,0,HeadStill1,4,10,1
36,pong_constant_velocity,0.45157521963119507,0.5115097761154175,0.5533419847488403,0.5146901607513428,0.49855334162712095,0.5770341217517853,0.2316412329673767,0.3710145652294159,-0.006087546107539443,0.034529133357586596,0.031532593092891414,0.6640625,0.925,4,3.0,1781103059072,1.2352650165557861,0,0,0,HeadStill1,4,10,1
37,pong_constant_velocity,0.45166048407554626,0.5115421414375305,0.5536142587661743,0.5147784352302551,0.498590761423111,0.577055424451828,0.2316523790359497,0.370931476354599,-0.0059871626833727775,0.03444254340312998,0.03177440515864148,0.6703125,0.93125,4,3.0,1781103059101,1.270251989364624,0,0,0,HeadStill1,4,10,1
38,pong_constant_velocity,0.45178478956222534,0.5115753412246704,0.5540147423744202,0.514884352684021,0.49863815903663633,0.5770622432231903,0.23168319463729858,0.3708989918231964,-0.005894135810171291,0.034460103629440984,0.03205612042921674,0.6765625,0.9375,4,3.0,1781103059136,1.3127739429473877,0,0,0,HeadStill1,4,10,1
39,pong_constant_velocity,0.4518706202507019,0.5116404294967651,0.5544268488883972,0.5150216221809387,0.4987182915210724,0.5770996510982513,0.23177164793014526,0.3707221448421478,-0.005558208689609804,0.03433851277528421,0.03240314493331555,0.6828125,0.94375,4,3.0,1781103059167,1.3341701030731201,0,0,0,HeadStill1,4,10,1
40,pong_constant_velocity,0.45191940665245056,0.5117685794830322,0.5546585321426392,0.5151258707046509,0.49876086711883544,0.5771650314331055,0.23179754614830017,0.3704591989517212,-0.0055036523659861645,0.034137191699030484,0.032139284363979025,0.6890625,0.95,4,3.0,1781103059229,1.3933634757995605,0,0,0,HeadStill1,4,10,1
41,pong_constant_velocity,0.45193061232566833,0.5118184685707092,0.5547263026237488,0.5151798129081726,0.4987693905830383,0.5772102057933808,0.23178163170814514,0.3703521192073822,-0.005525631578358611,0.034016498812460494,0.03215429601845158,0.6953125,0.95625,4,3.0,1781103059261,1.425610065460205,0,0,0,HeadStill1,4,10,1
42,pong_constant_velocity,0.4519668221473694,0.511871874332428,0.5547133684158325,0.5151820182800293,0.49877631664276123,0.5772336006164551,0.23176845908164978,0.37032991647720337,-0.005499199612594236,0.03397665096598239,0.031651111807800496,0.7015625,0.9625,4,3.0,1781103059291,1.4564869403839111,0,0,0,HeadStill1,4,10,1
43,pong_constant_velocity,0.4519925117492676,0.5119432806968689,0.5547117590904236,0.5152546763420105,0.4988174557685852,0.5772855579853058,0.2317827045917511,0.3702481687068939,-0.004801964991358867,0.034019931795206605,0.03149289211541187,0.7078125,0.96875,4,3.0,1781103059340,1.503265142440796,0,0,0,HeadStill1,4,10,1
44,pong_constant_velocity,0.4519992470741272,0.5119761228561401,0.5547062158584595,0.5152866244316101,0.49883112907409666,0.5773026168346405,0.23178905248641968,0.37022140622138977,-0.004580748436204203,0.03408976838848712,0.031432157074890256,0.7140625,0.975,4,3.0,1781103059368,1.5315639972686768,0,0,0,HeadStill1,4,10,1
45,pong_constant_velocity,0.45200014114379883,0.5119907855987549,0.5547255277633667,0.5153011083602905,0.4988322854042053,0.5773051798343658,0.23178118467330933,0.3702014982700348,-0.004569460349021497,0.03408999153994224,0.03145923743544818,0.7203125,0.9791666666666666,4,-3.0,1781103059383,1.5466582775115967,0,1,1,HeadStill1,4,10,1
46,pong_constant_velocity,0.4519972801208496,0.512014627456665,0.5547335147857666,0.5153048634529114,0.4988339066505432,0.5773258447647095,0.2317447066307068,0.37023234367370605,-0.0045700510103957506,0.03404927788406863,0.031232523557319487,0.7265625,0.9729166666666667,4,-3.0,1781103059403,1.5667304992675781,0,0,0,HeadStill1,4,10,1
47,pong_constant_velocity,0.4519982933998108,0.5120416879653931,0.5547307729721069,0.5153090953826904,0.4988353788852692,0.5773189783096313,0.23174035549163818,0.37021756172180176,-0.004478057633338632,0.034045324429017164,0.03102715550891204,0.7328125,0.9666666666666667,4,-3.0,1781103059436,1.600576639175415,0,0,0,HeadStill1,4,10,1
48,pong_constant_velocity,0.4519842565059662,0.5120537281036377,0.5547302961349487,0.5153125524520874,0.498817378282547,0.57731192111969,0.23172986507415771,0.37021732330322266,-0.004381289897427376,0.03405259131223258,0.030785787306069682,0.7390625,0.9604166666666667,4,-3.0,1781103059469,1.633235216140747,0,0,0,HeadStill1,4,10,1
49,pong_constant_velocity,0.4519783556461334,0.5120590329170227,0.554780125617981,0.5153178572654724,0.4988196849822998,0.5773076355457306,0.23173558712005615,0.37025025486946106,-0.004353403064602336,0.03411222585001357,0.030701266281050316,0.7453125,0.9541666666666667,4,-3.0,1781103059500,1.6643099784851074,0,0,0,HeadStill1,4,10,1
50,pong_constant_velocity,0.4519971013069153,0.5120720267295837,0.5548500418663025,0.5153442025184631,0.4988374292850494,0.5773167848587036,0.23172765970230103,0.37029051780700684,-0.004358053318826209,0.034057771788365415,0.030736086661070496,0.7515625,0.9479166666666666,4,-3.0,1781103059532,1.6975841522216797,0,0,0,HeadStill1,4,10,1
51,pong_constant_velocity,0.45202797651290894,0.5120924711227417,0.5552036166191101,0.5153518915176392,0.4988573968410492,0.5772848963737488,0.23169326782226562,0.3702525496482849,-0.004386612567298352,0.03411833303900137,0.030317996291220055,0.7578125,0.9416666666666667,4,-3.0,1781103059597,1.7665963172912598,0,0,0,HeadStill1,4,10,1
52,pong_constant_velocity,0.45280712842941284,0.5120960474014282,0.5564596652984619,0.5153549909591675,0.49887710213661196,0.5772809445858001,0.23159778118133545,0.370317667722702,-0.0043921529064234145,0.034179009333725745,0.029995527107694618,0.7640625,0.9354166666666667,4,-3.0,1781103059628,1.7960093021392822,0,0,0,HeadStill1,4,10,1
53,pong_constant_velocity,0.45350998640060425,0.5120885968208313,0.5571379661560059,0.5153553485870361,0.4989017963409424,0.5772836983203888,0.23153778910636902,0.37052610516548157,-0.004570981600359063,0.03412286362364434,0.03011436256908246,0.7703125,0.9291666666666667,4,-3.0,1781103059660,1.824204921722412,0,0,0,HeadStill1,4,10,1
54,pong_constant_velocity,0.4539574682712555,0.5120728611946106,0.5576785802841187,0.5153414011001587,0.4989440321922302,0.5772656977176667,0.2315276861190796,0.3705398142337799,-0.004476121089797883,0.034094737716669966,0.03007886007561175,0.7765625,0.9229166666666667,4,-3.0,1781103059694,1.8585965633392334,0,0,0,HeadStill1,4,10,1
55,pong_constant_velocity,0.45425739884376526,0.5120426416397095,0.5579837560653687,0.5153321027755737,0.4990100562572479,0.577243709564209,0.23141783475875854,0.37055283784866333,-0.004494085969854325,0.03373921981326541,0.03012929738840148,0.7828125,0.9166666666666666,4,-3.0,1781103059739,1.9043357372283936,0,0,0,HeadStill1,4,10,1
56,pong_constant_velocity,0.45435529947280884,0.512032151222229,0.5580635666847229,0.5153309106826782,0.4990390479564667,0.5772352755069733,0.23136097192764282,0.3705436885356903,-0.004496092197198418,0.03360336442623862,0.03014603996518633,0.7890625,0.9104166666666667,4,-3.0,1781103059759,1.9229366779327393,0,0,0,HeadStill1,4,10,1
57,pong_constant_velocity,0.45443469285964966,0.5120079517364502,0.5580376982688904,0.5152979493141174,0.49906331300735474,0.5772271633148194,0.23134341835975647,0.3705456852912903,-0.00440323000150594,0.03358512721730493,0.030066824264108446,0.7953125,0.9041666666666667,4,-3.0,1781103059775,1.9390497207641602,0,0,0,HeadStill1,4,10,1
58,pong_constant_velocity,0.45444053411483765,0.5119485855102539,0.5580756664276123,0.5152367353439331,0.49914066195487977,0.5771690130233764,0.2312920093536377,0.37071412801742554,-0.004052637384046535,0.033631447028893244,0.03008102404289659,0.8015625,0.8979166666666667,4,-3.0,1781103059804,1.9690730571746826,0,0,0,HeadStill1,4,10,1
59,pong_constant_velocity,0.4546054005622864,0.5118445754051208,0.5580804347991943,0.5151501893997192,0.49919241666793823,0.5771047055721283,0.23130124807357788,0.37073108553886414,-0.003750073120305644,0.033631556654512805,0.030411601321048767,0.8078125,0.8916666666666667,4,-3.0,1781103059837,2.0031802654266357,0,0,0,HeadStill1,4,10,1
60,pong_constant_velocity,0.4547310471534729,0.5117645859718323,0.5580610036849976,0.5151073932647705,0.49925053119659424,0.5770582556724548,0.2312522828578949,0.370744526386261,-0.0035908705401184273,0.03358994389283321,0.031089700615000087,0.8140625,0.8854166666666666,4,-3.0,1781103059868,2.0354983806610107,0,0,0,HeadStill1,4,10,1
61,pong_constant_velocity,0.45482581853866577,0.5117121934890747,0.558077335357666,0.515086829662323,0.49930081963539125,0.5770066559314728,0.2312772572040558,0.3706965744495392,-0.0035282435376528744,0.033381040000520966,0.031722591501798396,0.8203125,0.8791666666666667,4,-3.0,1781103059900,2.0657050609588623,0,0,0,HeadStill1,4,10,1
62,pong_constant_velocity,0.4549171030521393,0.5116730332374573,0.5581245422363281,0.5150657296180725,0.4993253231048584,0.5769464313983917,0.23130092024803162,0.3707124888896942,-0.0035627999950007543,0.03360751832515787,0.03207505313561122,0.8265625,0.8729166666666667,4,-3.0,1781103059932,2.100005865097046,0,0,0,HeadStill1,4,10,1
63,pong_constant_velocity,0.4551558494567871,0.5116066932678223,0.558135449886322,0.5150368213653564,0.4993915021419525,0.5769010305404663,0.23123356699943542,0.3707438111305237,-0.0035997964147288196,0.03351878739218935,0.03256359561367555,0.8328125,0.8666666666666667,4,-3.0,1781103059995,2.1593966484069824,0,0,0,HeadStill1,4,10,1
64,pong_constant_velocity,0.45521479845046997,0.5115637183189392,0.5581341981887817,0.5150198936462402,0.4994498133659363,0.5768662810325622,0.23123806715011597,0.3706982731819153,-0.0037428493289523913,0.033580467851207975,0.032792415181112554,0.8390625,0.8604166666666667,4,-3.0,1781103060029,2.193681001663208,0,0,0,HeadStill1,4,10,1
65,pong_constant_velocity,0.4552796483039856,0.5115422606468201,0.5582135915756226,0.5150184631347656,0.4994792640209198,0.5768550157546997,0.23122328519821167,0.3707001209259033,-0.003675034793800813,0.03359211849020053,0.0329097785644777,0.8453125,0.8541666666666666,4,-3.0,1781103060059,2.2257494926452637,0,0,0,HeadStill1,4,10,1
66,pong_constant_velocity,0.45530909299850464,0.5115398168563843,0.5582134127616882,0.5150172710418701,0.499526309967041,0.5768087983131409,0.23116445541381836,0.37057995796203613,-0.0035917836080587968,0.033790552168947934,0.03290016968187081,0.8515625,0.8479166666666667,4,-3.0,1781103060092,2.255892038345337,0,0,0,HeadStill1,4,10,1
67,pong_constant_velocity,0.4553954005241394,0.5115035176277161,0.5582098960876465,0.5149797201156616,0.49954479932785034,0.5768004417419433,0.23111391067504883,0.37061023712158203,-0.0036619446605086646,0.033835074997491076,0.0329317324233611,0.8578125,0.8416666666666667,4,-3.0,1781103060140,2.3040058612823486,0,0,0,HeadStill1,4,10,1
68,pong_constant_velocity,0.45541924238204956,0.5114976167678833,0.5582073926925659,0.514974057674408,0.49955337643623354,0.5767821609973908,0.2311132550239563,0.3705976903438568,-0.0036324252334725233,0.03386850789231693,0.03295343184617218,0.8640625,0.8354166666666667,4,-3.0,1781103060165,2.3291988372802734,0,0,0,HeadStill1,4,10,1
69,pong_constant_velocity,0.4554246962070465,0.5114932656288147,0.5582112669944763,0.5149704813957214,0.4995615243911743,0.5767704665660858,0.231131911277771,0.3705483376979828,-0.0036344529688608082,0.033932213507352975,0.03294703412492194,0.8703125,0.8291666666666667,4,-3.0,1781103060180,2.3438446521759033,0,0,0,HeadStill1,4,10,1
70,pong_constant_velocity,0.45542651414871216,0.5114644169807434,0.5582125186920166,0.5149371027946472,0.4995640814304352,0.5767487227916718,0.2311156690120697,0.37059131264686584,-0.003708403208013457,0.03400556060359079,0.03307122714894332,0.8765625,0.8229166666666666,4,-3.0,1781103060204,2.36918568611145,0,0,0,HeadStill1,4,10,1
71,pong_constant_velocity,0.4554286599159241,0.5114349722862244,0.558212161064148,0.5149282217025757,0.4995931565761566,0.5767286837100982,0.2311842441558838,0.3706164062023163,-0.003793093846586989,0.033900410129671356,0.033222019569189194,0.8828125,0.8166666666666667,4,-3.0,1781103060238,2.405299663543701,0,0,0,HeadStill1,4,10,1
72,pong_constant_velocity,0.45544251799583435,0.5113629698753357,0.5582135915756226,0.5149011611938477,0.4996268391609192,0.576710432767868,0.23121219873428345,0.37065592408180237,-0.003967804878300285,0.0338317487392006,0.033566569914953506,0.8890625,0.8104166666666667,4,-3.0,1781103060267,2.4334747791290283,0,0,0,HeadStill1,4,10,1
73,pong_constant_velocity,0.4554874002933502,0.5112690329551697,0.5582026243209839,0.5148339867591858,0.499649840593338,0.576674473285675,0.23121947050094604,0.37074142694473267,-0.004163853600428333,0.033940706516662596,0.033805520823063234,0.8953125,0.8041666666666667,4,-3.0,1781103060301,2.4643943309783936,0,0,0,HeadStill1,4,10,1
74,pong_constant_velocity,0.4554921090602875,0.5112112760543823,0.558100700378418,0.5147355794906616,0.49966748952865603,0.5766503870487213,0.23123937845230103,0.37081167101860046,-0.004317249951218607,0.03401742030761812,0.03365866225184782,0.9015625,0.7979166666666667,4,-3.0,1781103060334,2.501142740249634,0,0,0,HeadStill1,4,10,1
75,pong_constant_velocity,0.45550522208213806,0.5110519528388977,0.5580808520317078,0.5145688056945801,0.4996921241283417,0.5765935003757476,0.23130759596824646,0.3710080683231354,-0.004352374798602571,0.03410584735357518,0.033870147758300634,0.9078125,0.7916666666666666,4,-3.0,1781103060397,2.568577289581299,0,0,0,HeadStill1,4,10,1
76,pong_constant_velocity,0.4554826617240906,0.5109912753105164,0.5580527782440186,0.5145056843757629,0.4997167706489563,0.576577240228653,0.231419175863266,0.371037095785141,-0.004588906908169963,0.034094906007169995,0.03409716148226762,0.9140625,0.7854166666666667,4,-3.0,1781103060429,2.5982441902160645,0,0,0,HeadStill1,4,10,1
77,pong_constant_velocity,0.45547252893447876,0.5109489560127258,0.5580071210861206,0.5144215822219849,0.4997291326522827,0.5764990389347077,0.23149815201759338,0.3711610734462738,-0.004809927252143435,0.03414839564066417,0.03366639058517933,0.9203125,0.7791666666666667,4,-3.0,1781103060461,2.6293132305145264,0,0,0,HeadStill1,4,10,1
78,pong_constant_velocity,0.4554719924926758,0.5108822584152222,0.5579896569252014,0.5142964720726013,0.49972455501556395,0.5764789938926697,0.23148968815803528,0.3712397813796997,-0.005004631474327986,0.03384175956149041,0.033324651127863515,0.9265625,0.7729166666666667,4,-3.0,1781103060492,2.655393362045288,0,0,0,HeadStill1,4,10,1
79,pong_constant_velocity,0.45548826456069946,0.5107923746109009,0.5579895973205566,0.5141996145248413,0.4997276306152344,0.5763623535633087,0.23149478435516357,0.3715512454509735,-0.005003040806542395,0.03411430048677364,0.03323739819351692,0.9328125,0.7666666666666667,4,-3.0,1781103060541,2.7046775817871094,0,0,0,HeadStill1,4,10,1
80,pong_constant_velocity,0.45548900961875916,0.5107344388961792,0.5580047369003296,0.5141698718070984,0.4997267842292786,0.5763310611248016,0.2314886450767517,0.37166091799736023,-0.005011927950799939,0.034164855045008484,0.03326876130185777,0.9390625,0.7604166666666666,4,-3.0,1781103060569,2.734128952026367,0,0,0,HeadStill1,4,10,1
81,pong_constant_velocity,0.45547500252723694,0.5106969475746155,0.558009922504425,0.5141623616218567,0.49973278641700747,0.5763123691082,0.23148846626281738,0.37165698409080505,-0.004996997733108258,0.034127528448795214,0.033468682096275175,0.9453125,0.7541666666666667,4,-3.0,1781103060585,2.750741720199585,0,0,0,HeadStill1,4,10,1
82,pong_constant_velocity,0.4554708003997803,0.5106011629104614,0.557964563369751,0.5141329169273376,0.4997453629970551,0.5762974858283997,0.23149904608726501,0.3716542720794678,-0.005041633951563496,0.034097185647449915,0.034136950545676815,0.9515625,0.7479166666666667,4,-3.0,1781103060615,2.7808969020843506,0,0,0,HeadStill1,4,10,1
83,pong_constant_velocity,0.4554654657840729,0.5105782747268677,0.5579148530960083,0.5140926837921143,0.499754935503006,0.5762826383113862,0.2314808964729309,0.3716517984867096,-0.005068100386110328,0.03393482973706484,0.03409104815498152,0.9578125,0.7416666666666667,4,-3.0,1781103060638,2.803880214691162,0,0,0,HeadStill1,4,10,1
84,pong_constant_velocity,0.4554773271083832,0.5105206370353699,0.5578956007957458,0.514039933681488,0.49977139830589296,0.5762315034866333,0.2315044403076172,0.3716576099395752,-0.005155123583934089,0.03362345197886897,0.034229419651314506,0.9640625,0.7354166666666667,4,-3.0,1781103060668,2.8339641094207764,0,0,0,HeadStill1,4,10,1
85,pong_constant_velocity,0.45550185441970825,0.5104578137397766,0.5578688383102417,0.5139972567558289,0.49977987408638,0.5761596143245697,0.2315090000629425,0.37156757712364197,-0.005284074605636629,0.033125131990652035,0.03452834576817452,0.9703125,0.7291666666666666,4,-3.0,1781103060700,2.864773750305176,0,0,0,HeadStill1,4,10,1
86,pong_constant_velocity,0.455616295337677,0.5102773904800415,0.5580711364746094,0.5139273405075073,0.499794065952301,0.57610382437706,0.23145818710327148,0.37174108624458313,-0.005425260041656109,0.03314037587181399,0.03533008471157825,0.9765625,0.7229166666666667,4,-3.0,1781103060735,2.900573253631592,0,0,0,HeadStill1,4,10,1
87,pong_constant_velocity,0.4556789994239807,0.5101690292358398,0.558316171169281,0.513856828212738,0.49981332421302793,0.5760496199131012,0.23143833875656128,0.37175342440605164,-0.005335199983723468,0.03302263312216034,0.0355218487589488,0.9828125,0.7166666666666667,4,-3.0,1781103060767,2.9313974380493164,0,0,0,HeadStill1,4,10,1
88,pong_constant_velocity,0.45578303933143616,0.5099669098854065,0.5585188269615173,0.5137728452682495,0.49983078241348267,0.5759730637073517,0.2314840853214264,0.37173792719841003,-0.005439394323677018,0.03254507271642059,0.036039136634418746,0.984375,0.7104166666666667,-4,-3.0,1781103060828,2.9931719303131104,1,0,1,HeadStill1,4,10,1
89,pong_constant_velocity,0.45584431290626526,0.509915292263031,0.5586762428283691,0.5137054324150085,0.49984410405158997,0.5758995234966278,0.23149603605270386,0.3716788589954376,-0.005357300561117178,0.03227690105250599,0.03595932117423824,0.978125,0.7041666666666667,-4,-3.0,1781103060860,3.0244171619415283,0,0,0,HeadStill1,4,10,1
90,pong_constant_velocity,0.45590099692344666,0.5098685622215271,0.558708667755127,0.5136620402336121,0.49986342191696165,0.5758551836013794,0.23148715496063232,0.3715987205505371,-0.00530394905901831,0.032102087902076096,0.03592933102026283,0.971875,0.6979166666666666,-4,-3.0,1781103060892,3.056478500366211,0,0,0,HeadStill1,4,10,1
91,pong_constant_velocity,0.45602384209632874,0.5098082423210144,0.5587565302848816,0.5136215686798096,0.49990264177322385,0.5757680594921112,0.23139864206314087,0.3713362514972687,-0.0055548042681709585,0.032396408115360084,0.0359265475398077,0.965625,0.6916666666666667,-4,-3.0,1781103060940,3.104193925857544,0,0,0,HeadStill1,4,10,1
92,pong_constant_velocity,0.45608586072921753,0.509781539440155,0.5587689876556396,0.5136043429374695,0.4999132096767426,0.575750082731247,0.23136618733406067,0.37129339575767517,-0.005624303700420475,0.03241082280996191,0.03594008248476243,0.959375,0.6854166666666667,-4,-3.0,1781103060959,3.123379707336426,0,0,0,HeadStill1,4,10,1
93,pong_constant_velocity,0.45609569549560547,0.5097672343254089,0.5588045120239258,0.5135875344276428,0.4999151110649109,0.5757351279258728,0.2313573956489563,0.3712937831878662,-0.005662711098939517,0.032316757196181385,0.03591104363585286,0.953125,0.6791666666666667,-4,-3.0,1781103060973,3.1380460262298584,0,0,0,HeadStill1,4,10,1
94,pong_constant_velocity,0.45609647035598755,0.5097276568412781,0.5588610172271729,0.5135414004325867,0.4999186933040619,0.5756501853466034,0.2313520908355713,0.37128469347953796,-0.005680617831920285,0.03172753759016016,0.03583668965572773,0.946875,0.6729166666666667,-4,-3.0,1781103061003,3.1691043376922607,0,0,0,HeadStill1,4,10,1
95,pong_constant_velocity,0.4561026692390442,0.5096323490142822,0.5588944554328918,0.5134655833244324,0.49991534948349,0.5756371259689331,0.23135119676589966,0.37129515409469604,-0.005682314425949824,0.03165291953396361,0.03607399198143388,0.940625,0.6666666666666666,-4,-3.0,1781103061035,3.200204372406006,0,0,0,HeadStill1,4,10,1
96,pong_constant_velocity,0.4560983180999756,0.5095766186714172,0.5589394569396973,0.513435959815979,0.4999124586582184,0.5756061553955079,0.231339693069458,0.37135744094848633,-0.005625527538134759,0.03130340796591649,0.036204022234795775,0.934375,0.6604166666666667,-4,-3.0,1781103061067,3.230851173400879,0,0,0,HeadStill1,4,10,1
97,pong_constant_velocity,0.45609885454177856,0.5095229744911194,0.5589539408683777,0.5134121179580688,0.49990862011909487,0.5755887508392334,0.2313418984413147,0.3714228868484497,-0.00568460399461723,0.031279116454907226,0.036264255637676185,0.928125,0.6541666666666667,-4,-3.0,1781103061100,3.2637248039245605,0,0,0,HeadStill1,4,10,1
98,pong_constant_velocity,0.4560543894767761,0.5094512701034546,0.5585135817527771,0.5132383108139038,0.4998965263366699,0.5755421817302704,0.2313312590122223,0.37130990624427795,-0.005613815896520943,0.031143398640655462,0.035881597924813505,0.921875,0.6479166666666667,-4,-3.0,1781103061132,3.297440767288208,0,0,0,HeadStill1,4,10,1
99,pong_constant_velocity,0.45570117235183716,0.5093077421188354,0.557734489440918,0.5130689144134521,0.49984670877456666,0.5755136370658874,0.2312658727169037,0.37130773067474365,-0.005548006152065819,0.031124759411253856,0.03562477394685726,0.915625,0.6416666666666667,-4,-3.0,1781103061165,3.329035997390747,0,0,0,HeadStill1,4,10,1
100,pong_constant_velocity,0.45529061555862427,0.5091711282730103,0.5569826364517212,0.5127671957015991,0.4997795343399048,0.5754824936389923,0.23122119903564453,0.3713173568248749,-0.005675971219164126,0.031023746597232293,0.03441370664079459,0.909375,0.6354166666666666,-4,-3.0,1781103061228,3.4011173248291016,0,0,0,HeadStill1,4,10,1
101,pong_constant_velocity,0.45518994331359863,0.5091171264648438,0.556623637676239,0.5126668214797974,0.49975783228874204,0.5754349172115326,0.23119816184043884,0.3712051212787628,-0.005674667682772381,0.031147212208635536,0.03415632364983499,0.903125,0.6291666666666667,-4,-3.0,1781103061262,3.4300758838653564,0,0,0,HeadStill1,4,10,1
102,pong_constant_velocity,0.45509156584739685,0.5090600252151489,0.5564548969268799,0.5125371217727661,0.4996698200702667,0.5754221498966217,0.2310587465763092,0.37115225195884705,-0.005525248466892685,0.031103872447637078,0.03387889534132326,0.896875,0.6229166666666667,-4,-3.0,1781103061309,3.475971221923828,0,0,0,HeadStill1,4,10,1
103,pong_constant_velocity,0.45506080985069275,0.5090410113334656,0.5564138889312744,0.5124868750572205,0.4996302008628845,0.5754154324531555,0.23096483945846558,0.37112540006637573,-0.0054067836282664,0.031080707131558572,0.03373794136866822,0.890625,0.6166666666666667,-4,-3.0,1781103061333,3.4980366230010986,0,0,0,HeadStill1,4,10,1
104,pong_constant_velocity,0.455029159784317,0.5090236067771912,0.5564122796058655,0.5124554634094238,0.49960795044898987,0.5753955721855164,0.2308877408504486,0.3711813688278198,-0.005266539715026138,0.031058597582614866,0.033578333232508556,0.884375,0.6104166666666667,-4,-3.0,1781103061349,3.514288902282715,0,0,0,HeadStill1,4,10,1
105,pong_constant_velocity,0.45497456192970276,0.5089995861053467,0.5563645958900452,0.5124123692512512,0.49956833720207217,0.5753781080245972,0.23088377714157104,0.3711678385734558,-0.005354597689428429,0.030962173304279975,0.033434778031513686,0.878125,0.6041666666666666,-4,-3.0,1781103061375,3.540355920791626,0,0,0,HeadStill1,4,10,1
106,pong_constant_velocity,0.45484256744384766,0.508985161781311,0.5563321709632874,0.5123928189277649,0.49955928325653076,0.5753560602664948,0.2308727502822876,0.3711507022380829,-0.005305155519618155,0.03088960908243629,0.033392153980257994,0.871875,0.5979166666666667,-4,-3.0,1781103061406,3.570314407348633,0,0,0,HeadStill1,4,10,1
107,pong_constant_velocity,0.45480966567993164,0.5089429020881653,0.5563043355941772,0.512363076210022,0.4995451092720032,0.5753486633300782,0.23090553283691406,0.37113869190216064,-0.0052543242662789836,0.030829621078604725,0.033544424511703815,0.865625,0.5916666666666667,-4,-3.0,1781103061438,3.6038601398468018,0,0,0,HeadStill1,4,10,1
108,pong_constant_velocity,0.4546622633934021,0.5088878273963928,0.5562942624092102,0.5122902393341064,0.49953078627586367,0.575298148393631,0.23092538118362427,0.3712960183620453,-0.00525309831362432,0.03082165474574365,0.0333964911200625,0.859375,0.5854166666666667,-4,-3.0,1781103061471,3.637723922729492,0,0,0,HeadStill1,4,10,1
109,pong_constant_velocity,0.4545070230960846,0.5087998509407043,0.5561271905899048,0.5121777057647705,0.4995107054710388,0.575256735086441,0.23096442222595215,0.37127599120140076,-0.00529479166129024,0.030419238149439455,0.03345015746411659,0.853125,0.5791666666666667,-4,-3.0,1781103061500,3.666865110397339,0,0,0,HeadStill1,4,10,1
110,pong_constant_velocity,0.4545346796512604,0.5087123513221741,0.5561846494674683,0.5121055245399475,0.49950408935546875,0.5751790940761566,0.23096364736557007,0.3714081346988678,-0.005298551430775341,0.030050137256989812,0.03352427750573404,0.846875,0.5729166666666666,-4,-3.0,1781103061536,3.7065773010253906,0,0,0,HeadStill1,4,10,1
111,pong_constant_velocity,0.4545500874519348,0.5085745453834534,0.5561860799789429,0.5119584202766418,0.49948992729187014,0.5751331329345704,0.23101145029067993,0.3714842200279236,-0.005406595765596614,0.02995497291523699,0.03366541196281857,0.840625,0.5666666666666667,-4,-3.0,1781103061567,3.738182306289673,0,0,0,HeadStill1,4,10,1
112,pong_constant_velocity,0.45455414056777954,0.5084483027458191,0.5561957359313965,0.5118392109870911,0.49946584105491637,0.5750188887119293,0.23103585839271545,0.37155941128730774,-0.005708451852275144,0.029695411216313822,0.033563835849641135,0.834375,0.5604166666666667,-4,-3.0,1781103061599,3.768456220626831,0,0,0,HeadStill1,4,10,1
113,pong_constant_velocity,0.45455771684646606,0.5081648826599121,0.5562020540237427,0.5115000605583191,0.49944970607757566,0.5748413860797882,0.23112642765045166,0.37191441655158997,-0.006247972358573139,0.0297516855208397,0.03308947648743076,0.828125,0.5541666666666667,-4,-3.0,1781103061659,3.8237295150756836,0,0,0,HeadStill1,4,10,1
114,pong_constant_velocity,0.45455223321914673,0.5079171657562256,0.5561687350273132,0.5112730264663696,0.4994104266166687,0.5746761798858643,0.23117733001708984,0.37225353717803955,-0.0070347855053690695,0.029809564769338222,0.033387927158617776,0.821875,0.5479166666666667,-4,-3.0,1781103061711,3.8793630599975586,0,0,0,HeadStill1,4,10,1
115,pong_constant_velocity,0.4545513689517975,0.5077978372573853,0.5561636686325073,0.5111898183822632,0.49938216209411623,0.5746174275875091,0.2312009632587433,0.37239763140678406,-0.007502046000827295,0.029903627607529727,0.03373432437299655,0.815625,0.5416666666666666,-4,-3.0,1781103061737,3.902719020843506,0,0,0,HeadStill1,4,10,1
116,pong_constant_velocity,0.45454755425453186,0.5077747106552124,0.5561786890029907,0.5111717581748962,0.4993656098842621,0.5745875120162964,0.2312580645084381,0.3724746108055115,-0.007943250109249893,0.029933252649547045,0.03375066887033698,0.809375,0.5354166666666667,-4,-3.0,1781103061753,3.9204320907592773,0,0,0,HeadStill1,4,10,1
117,pong_constant_velocity,0.45454326272010803,0.5076705813407898,0.5561967492103577,0.5110702514648438,0.4993347227573395,0.5744800567626953,0.23130828142166138,0.3724462389945984,-0.008094010656300176,0.030005788486433226,0.0338069397735412,0.803125,0.5291666666666667,-4,-3.0,1781103061785,3.9513349533081055,0,0,0,HeadStill1,4,10,1
118,pong_constant_velocity,0.45453912019729614,0.5075923204421997,0.5561789274215698,0.5109862089157104,0.49932361841201783,0.5744223237037659,0.23133111000061035,0.37251192331314087,-0.008305007971983143,0.0301064224869206,0.033801874698466086,0.796875,0.5229166666666667,-4,-3.0,1781103061816,3.982309103012085,0,0,0,HeadStill1,4,10,1
119,pong_constant_velocity,0.4545307755470276,0.5075043439865112,0.5561782121658325,0.5109041333198547,0.4993026614189148,0.5743683040142059,0.23134082555770874,0.3726036250591278,-0.008606623373109986,0.02992820717579512,0.033938774329420794,0.790625,0.5166666666666667,-4,-3.0,1781103061847,4.013469934463501,0,0,0,HeadStill1,4,10,1
120,pong_constant_velocity,0.4545310139656067,0.5074565410614014,0.5561567544937134,0.5108510851860046,0.4992808699607849,0.5743277430534363,0.2313438057899475,0.37269067764282227,-0.008892756431148802,0.03002297243180239,0.03399892717364741,0.784375,0.5104166666666666,-4,-3.0,1781103061870,4.0343639850616455,0,0,0,HeadStill1,4,10,1
121,pong_constant_velocity,0.45452842116355896,0.5073568224906921,0.5561511516571045,0.5107843279838562,0.4992606520652771,0.5742698311805725,0.23134487867355347,0.3727220892906189,-0.009147525212408244,0.029888430619715637,0.034337031861929705,0.778125,0.5041666666666667,-4,-3.0,1781103061900,4.064174652099609,0,0,0,HeadStill1,4,10,1
122,pong_constant_velocity,0.4544430673122406,0.5073304176330566,0.5560967922210693,0.5107523798942566,0.4992351233959198,0.5742443382740021,0.23136192560195923,0.37275591492652893,-0.00937137151114396,0.029691076946496506,0.03426436543789063,0.771875,0.4979166666666667,-4,-3.0,1781103061932,4.0958051681518555,0,0,0,HeadStill1,4,10,1
123,pong_constant_velocity,0.45440784096717834,0.507286787033081,0.5560738444328308,0.5106905102729797,0.49922141432762146,0.5741953015327453,0.23136410117149353,0.37297266721725464,-0.009528368832238801,0.02983782672890508,0.034175430606525434,0.765625,0.49166666666666664,-4,-3.0,1781103061964,4.127972602844238,0,0,0,HeadStill1,4,10,1
124,pong_constant_velocity,0.45429086685180664,0.5071333646774292,0.5559378862380981,0.5105059146881104,0.4991317570209503,0.5741418719291687,0.2313806712627411,0.37302374839782715,-0.009818264064193949,0.029676749276960197,0.03417132419379818,0.759375,0.48541666666666666,-4,-3.0,1781103062028,4.191616535186768,0,0,0,HeadStill1,4,10,1
125,pong_constant_velocity,0.4541805684566498,0.5070900321006775,0.5558702945709229,0.510451078414917,0.4990536987781525,0.5740556359291077,0.23138517141342163,0.3730466961860657,-0.010634598308757936,0.029210049714916152,0.03377670763373554,0.753125,0.4791666666666667,-4,-3.0,1781103062059,4.223711729049683,0,0,0,HeadStill1,4,10,1
126,pong_constant_velocity,0.45400890707969666,0.5069491267204285,0.5557812452316284,0.5102590322494507,0.49901012182235716,0.5739734411239624,0.23133429884910583,0.3731505274772644,-0.01076866352987797,0.02930574863343986,0.03313255763218351,0.746875,0.47291666666666665,-4,-3.0,1781103062107,4.271440267562866,0,0,0,HeadStill1,4,10,1
127,pong_constant_velocity,0.453963041305542,0.5068864226341248,0.5557346343994141,0.5101844072341919,0.4989986538887024,0.5739472687244416,0.2313252091407776,0.3731803596019745,-0.010799169181701693,0.029328202570625517,0.03298910964333466,0.740625,0.4666666666666667,-4,-3.0,1781103062130,4.294868230819702,0,0,0,HeadStill1,4,10,1
128,pong_constant_velocity,0.4536984860897064,0.5068345665931702,0.5554335117340088,0.5100973844528198,0.4989814579486847,0.5739111065864563,0.2313319742679596,0.37311941385269165,-0.010980567010979988,0.029234389339774326,0.03293214270066741,0.734375,0.46041666666666664,-4,-3.0,1781103062146,4.310232877731323,0,0,0,HeadStill1,4,10,1
129,pong_constant_velocity,0.45344457030296326,0.5066929459571838,0.5551227331161499,0.5099379420280457,0.4989481925964355,0.5738756835460663,0.23130643367767334,0.37311890721321106,-0.011242880754342412,0.02913790188064611,0.033024481280985625,0.728125,0.45416666666666666,-4,-3.0,1781103062172,4.337433576583862,0,0,0,HeadStill1,4,10,1
130,pong_constant_velocity,0.45328760147094727,0.5065339803695679,0.5548105835914612,0.5098291039466858,0.49890236258506776,0.5737885236740112,0.23127949237823486,0.373100221157074,-0.011569686920297941,0.028652148234155534,0.03355495829451492,0.721875,0.4479166666666667,-4,-3.0,1781103062205,4.372529983520508,0,0,0,HeadStill1,4,10,1
131,pong_constant_velocity,0.45308318734169006,0.506363034248352,0.554511547088623,0.5096879601478577,0.49882599115371706,0.573745995759964,0.2312244474887848,0.3730873763561249,-0.011850906187388068,0.028610838075891855,0.033936089366663105,0.715625,0.44166666666666665,-4,-3.0,1781103062238,4.404267072677612,0,0,0,HeadStill1,4,10,1
132,pong_constant_velocity,0.45296043157577515,0.506225049495697,0.554290771484375,0.509568452835083,0.4987444758415222,0.5736934125423432,0.23119133710861206,0.3730984032154083,-0.012462916503705965,0.028623651610877935,0.03427010065492717,0.709375,0.4354166666666667,-4,-3.0,1781103062270,4.436689138412476,0,0,0,HeadStill1,4,10,1
133,pong_constant_velocity,0.45286980271339417,0.5061624646186829,0.5541449785232544,0.5094783902168274,0.49865694642066954,0.5736349284648895,0.2311752438545227,0.37312427163124084,-0.013039009900020033,0.028354254438088644,0.03403403845579878,0.703125,0.42916666666666664,-4,-3.0,1781103062301,4.47235894203186,0,0,0,HeadStill1,4,10,1
134,pong_constant_velocity,0.4527648389339447,0.5060268640518188,0.5540079474449158,0.509402334690094,0.4985864222049713,0.5735482335090637,0.23118352890014648,0.37323659658432007,-0.013629603961825559,0.028051120823153336,0.034794164429820626,0.696875,0.42291666666666666,-4,-3.0,1781103062334,4.505496263504028,0,0,0,HeadStill1,4,10,1
135,pong_constant_velocity,0.45268335938453674,0.5059513449668884,0.5539057850837708,0.5093376636505127,0.4985234558582306,0.5734777092933655,0.23117414116859436,0.3731421232223511,-0.014154914897245904,0.027916456213022856,0.034989865539043416,0.690625,0.4166666666666667,-4,-3.0,1781103062366,4.5316760540008545,0,0,0,HeadStill1,4,10,1
136,pong_constant_velocity,0.4525586664676666,0.5059112310409546,0.5537973046302795,0.5093005299568176,0.49844040870666506,0.5733987927436829,0.23122483491897583,0.37321603298187256,-0.014515471698696856,0.027687180409376243,0.03503229206693682,0.684375,0.41041666666666665,-4,-3.0,1781103062400,4.563585996627808,0,0,0,HeadStill1,4,10,1
137,pong_constant_velocity,0.45228099822998047,0.505736768245697,0.5534743070602417,0.5089792013168335,0.49827454090118406,0.5732728600502014,0.2313103973865509,0.37317055463790894,-0.015046919476404592,0.027734239420977923,0.03407644704159701,0.678125,0.4041666666666667,-4,-3.0,1781103062461,4.627079486846924,0,0,0,HeadStill1,4,10,1
138,pong_constant_velocity,0.45215821266174316,0.5056112408638,0.5533255338668823,0.5087853074073792,0.4981017768383026,0.5731746852397919,0.2311290204524994,0.37325653433799744,-0.01563742077619951,0.02748037412697491,0.03377957710261942,0.671875,0.39791666666666664,-4,-3.0,1781103062509,4.672814130783081,0,0,0,HeadStill1,4,10,1
139,pong_constant_velocity,0.4520798325538635,0.5055376291275024,0.5532353520393372,0.5086820125579834,0.4980265736579895,0.5731259286403656,0.23104175925254822,0.3733188211917877,-0.015752582239865334,0.027338400404071338,0.03364600340423963,0.665625,0.39166666666666666,-4,-3.0,1781103062537,4.702006101608276,0,0,0,HeadStill1,4,10,1
140,pong_constant_velocity,0.4520105719566345,0.5055180788040161,0.5531641244888306,0.5086570978164673,0.49799607396125795,0.5730995237827301,0.23096820712089539,0.3732413947582245,-0.015635921361103287,0.027396531257068982,0.033537156865077127,0.659375,0.3854166666666667,-4,-3.0,1781103062552,4.71634840965271,0,0,0,HeadStill1,4,10,1
141,pong_constant_velocity,0.4519692063331604,0.5054687261581421,0.5530132055282593,0.5086074471473694,0.49793113470077516,0.5730732500553131,0.23086842894554138,0.3732247054576874,-0.015609245224296048,0.027249553094569078,0.033604783933859565,0.653125,0.37916666666666665,-4,-3.0,1781103062571,4.735409498214722,0,0,0,HeadStill1,4,10,1
142,pong_constant_velocity,0.45185932517051697,0.5054210424423218,0.5529106855392456,0.5085790753364563,0.4978576421737671,0.5730179131031037,0.23080796003341675,0.37307384610176086,-0.016039500918701086,0.02678726416190849,0.033721629825162275,0.646875,0.3729166666666667,-4,-3.0,1781103062603,4.766380310058594,0,0,0,HeadStill1,4,10,1
143,pong_constant_velocity,0.4515587389469147,0.5052306652069092,0.5526179075241089,0.5084368586540222,0.49780497550964353,0.5729373753070831,0.23086324334144592,0.37304893136024475,-0.015990930079900757,0.026673694192385106,0.03372789700879493,0.640625,0.36666666666666664,-4,-3.0,1781103062636,4.799126148223877,0,0,0,HeadStill1,4,10,1
144,pong_constant_velocity,0.4513161778450012,0.5050024390220642,0.5524612665176392,0.5082454085350037,0.4977440357208252,0.5728521347045898,0.23088502883911133,0.37303274869918823,-0.01627036086253436,0.026325443787927717,0.03386301138518396,0.634375,0.36041666666666666,-4,-3.0,1781103062668,4.83203649520874,0,0,0,HeadStill1,4,10,1
145,pong_constant_velocity,0.45113515853881836,0.5048326253890991,0.5523313283920288,0.5081313848495483,0.49770633578300477,0.5728146970272064,0.23087748885154724,0.37303492426872253,-0.01629522433500715,0.026253108278957177,0.03406207511497644,0.628125,0.3541666666666667,-4,-3.0,1781103062700,4.874624490737915,0,0,0,HeadStill1,4,10,1
146,pong_constant_velocity,0.4509645998477936,0.5046880841255188,0.5522053837776184,0.5079982280731201,0.497627979516983,0.57271688580513,0.23097684979438782,0.3729005753993988,-0.01630743957296088,0.02607922961954665,0.03391344610558929,0.621875,0.34791666666666665,-4,-3.0,1781103062734,4.899256467819214,0,0,0,HeadStill1,4,10,1
147,pong_constant_velocity,0.4505503177642822,0.504426121711731,0.5519143342971802,0.5077806711196899,0.49746357798576357,0.5725894451141358,0.2310422658920288,0.3729245662689209,-0.01659143924302018,0.02609149709204755,0.03416884876377612,0.615625,0.3416666666666667,-4,-3.0,1781103062797,4.963746070861816,0,0,0,HeadStill1,4,10,1
148,pong_constant_velocity,0.45042091608047485,0.5043350458145142,0.5518389344215393,0.5077154636383057,0.4974065005779266,0.5725552022457123,0.23108235001564026,0.3729502260684967,-0.016609131711177318,0.026170610460988387,0.03429471589216251,0.609375,0.33541666666666664,-4,-3.0,1781103062821,4.988148927688599,0,0,0,HeadStill1,4,10,1
149,pong_constant_velocity,0.45015445351600647,0.5042750835418701,0.5515936613082886,0.50757896900177,0.4972372531890869,0.5724181652069091,0.23112714290618896,0.37300974130630493,-0.01630966534026877,0.026386031464997566,0.033351693932033154,0.603125,0.32916666666666666,-4,-3.0,1781103062863,5.029643774032593,0,0,0,HeadStill1,4,10,1
150,pong_constant_velocity,0.45009785890579224,0.5041768550872803,0.5513628721237183,0.5075258016586304,0.4970687448978424,0.5723117530345917,0.23106947541236877,0.3732023537158966,-0.01721559753424463,0.02688536631351031,0.03358275878369437,0.596875,0.3229166666666667,-4,-3.0,1781103062910,5.075417757034302,0,0,0,HeadStill1,4,10,1
151,pong_constant_velocity,0.45006638765335083,0.5041269659996033,0.5513206720352173,0.5074989795684814,0.49701865911483767,0.5722783029079437,0.2310652732849121,0.3731863796710968,-0.017376294680537127,0.026977556482932475,0.0336952381997508,0.590625,0.31666666666666665,-4,-3.0,1781103062929,5.095654487609863,0,0,0,HeadStill1,4,10,1
152,pong_constant_velocity,0.45003023743629456,0.5040972232818604,0.5512892007827759,0.5074616074562073,0.4969565987586975,0.5722478330135345,0.23106220364570618,0.3731522858142853,-0.01788270616333132,0.027006536983365352,0.03367346984571821,0.584375,0.3104166666666667,-4,-3.0,1781103062945,5.109673738479614,0,0,0,HeadStill1,4,10,1
153,pong_constant_velocity,0.4499325156211853,0.5040634274482727,0.5512292385101318,0.5074149966239929,0.4968475937843323,0.5722033441066742,0.23105201125144958,0.3730814754962921,-0.018088839685280928,0.027097455557306735,0.03346450171483679,0.578125,0.30416666666666664,-4,-3.0,1781103062972,5.136255979537964,0,0,0,HeadStill1,4,10,1
154,pong_constant_velocity,0.4498150944709778,0.5040132999420166,0.5511198043823242,0.5072987675666809,0.4967507660388947,0.5721752285957337,0.23110869526863098,0.37307095527648926,-0.018508918631630976,0.02705695969958582,0.03281800274802325,0.571875,0.29791666666666666,-4,-3.0,1781103063006,5.178657293319702,0,0,0,HeadStill1,4,10,1
155,pong_constant_velocity,0.44968724250793457,0.5039818286895752,0.5509923696517944,0.507226288318634,0.496679413318634,0.5721285402774811,0.2310989499092102,0.37305667996406555,-0.018489001203704634,0.027066503005143516,0.03232998149544123,0.565625,0.2916666666666667,-4,-3.0,1781103063039,5.2041332721710205,0,0,0,HeadStill1,4,10,1
156,pong_constant_velocity,0.4495336413383484,0.5039483904838562,0.5509219169616699,0.5071607828140259,0.49658794403076173,0.5721109330654144,0.23110046982765198,0.37306931614875793,-0.019495850444487,0.02699401004734813,0.03191845872881968,0.559375,0.28541666666666665,-4,-3.0,1781103063070,5.234023809432983,0,0,0,HeadStill1,4,10,1
157,pong_constant_velocity,0.4494408965110779,0.5039393305778503,0.5507665872573853,0.5071187615394592,0.49652262330055236,0.572082006931305,0.23110297322273254,0.37311631441116333,-0.019912041079477555,0.026889049950533983,0.031221536815880604,0.553125,0.2791666666666667,-4,-3.0,1781103063100,5.263238430023193,0,0,0,HeadStill1,4,10,1
158,pong_constant_velocity,0.4493597447872162,0.5039042830467224,0.5507258176803589,0.5070274472236633,0.49646246433258057,0.572037261724472,0.23112702369689941,0.3731379806995392,-0.01977528762132292,0.02671221514463597,0.030443604572057557,0.546875,0.27291666666666664,-4,-3.0,1781103063135,5.298970699310303,0,0,0,HeadStill1,4,10,1
159,pong_constant_velocity,0.44918861985206604,0.5038505792617798,0.550675630569458,0.5069455504417419,0.49641136527061464,0.5719578564167023,0.23118236660957336,0.37316378951072693,-0.019909714764090567,0.026650389867696633,0.030114188041904147,0.540625,0.26666666666666666,-4,-3.0,1781103063165,5.333852052688599,0,0,0,HeadStill1,4,10,1
160,pong_constant_velocity,0.44869574904441833,0.5033429861068726,0.5497568845748901,0.5063392519950867,0.4963650107383728,0.5716655552387238,0.2313288450241089,0.37313345074653625,-0.01960949267905059,0.026572446736618772,0.029080177672357786,0.534375,0.2604166666666667,-4,-3.0,1781103063229,5.397901296615601,0,0,0,HeadStill1,4,10,1
161,pong_constant_velocity,0.44862285256385803,0.50316321849823,0.5495337843894958,0.506109893321991,0.49631689190864564,0.5715102970600128,0.23132848739624023,0.37301841378211975,-0.019846958862657714,0.0265549153388177,0.0285296994727845,0.528125,0.25416666666666665,-4,-3.0,1781103063262,5.428036689758301,0,0,0,HeadStill1,4,10,1
162,pong_constant_velocity,0.4481123983860016,0.5037096738815308,0.5492955446243286,0.5062853097915649,0.49627200365066526,0.5714053153991699,0.23105108737945557,0.37223899364471436,-0.018899136671865657,0.025193214429025862,0.025371358289581064,0.521875,0.24791666666666667,-4,-3.0,1781103063308,5.472715854644775,0,0,0,HeadStill1,4,10,1
163,pong_constant_velocity,0.44807520508766174,0.5039422512054443,0.5492481589317322,0.50645911693573,0.49626322984695437,0.5713686883449555,0.2309308648109436,0.37194934487342834,-0.01855640274552528,0.024905354724379512,0.02496576346874215,0.515625,0.24166666666666667,-4,-3.0,1781103063334,5.497982978820801,0,0,0,HeadStill1,4,10,1
164,pong_constant_velocity,0.4477289617061615,0.5062289834022522,0.5492125749588013,0.5095365047454834,0.49617367386817934,0.5716510057449341,0.2311541736125946,0.3716236352920532,-0.01799974910546299,0.02450708201212226,0.0287260178594552,0.509375,0.23541666666666666,-4,-3.0,1781103063349,5.513124227523804,0,0,0,HeadStill1,4,10,1
165,pong_constant_velocity,0.44743651151657104,0.5085140466690063,0.5489367842674255,0.5116485953330994,0.4959832191467285,0.5722811222076416,0.23136889934539795,0.3706197738647461,-0.016936795641938663,0.023182653883069195,0.025444022919535562,0.503125,0.22916666666666666,-4,-3.0,1781103063373,5.537336349487305,0,0,0,HeadStill1,4,10,1
166,pong_constant_velocity,0.44660577178001404,0.5086537599563599,0.5492947697639465,0.5114676356315613,0.49594150185585023,0.5723271191120147,0.23132041096687317,0.3703536093235016,-0.01691167992063722,0.021809156751767624,0.02382757087698534,0.496875,0.22291666666666668,-4,-3.0,1781103063405,5.569950342178345,0,0,0,HeadStill1,4,10,1
167,pong_constant_velocity,0.44645968079566956,0.508421003818512,0.5492916703224182,0.5113136172294617,0.4959567844867706,0.5722154557704926,0.23108085989952087,0.37026742100715637,-0.017489711801471977,0.02121346610417983,0.024603495475101544,0.490625,0.21666666666666667,-4,-3.0,1781103063439,5.603265285491943,0,0,0,HeadStill1,4,10,1
168,pong_constant_velocity,0.44652509689331055,0.5075733661651611,0.5492960214614868,0.5101884007453918,0.4959938108921051,0.5721570611000061,0.23093128204345703,0.37025660276412964,-0.01783909390499238,0.021374142267833785,0.023874144635576928,0.484375,0.21041666666666667,-4,-3.0,1781103063470,5.634254217147827,0,0,0,HeadStill1,4,10,1
169,pong_constant_velocity,0.4466783106327057,0.5064271092414856,0.5492507219314575,0.5089139342308044,0.4960136115550995,0.5721254050731659,0.23084625601768494,0.3703216016292572,-0.018084177272794755,0.021490985262995584,0.024707713281153388,0.478125,0.20416666666666666,-4,-3.0,1781103063502,5.668268442153931,0,0,0,HeadStill1,4,10,1
170,pong_constant_velocity,0.44680267572402954,0.505597710609436,0.5492340326309204,0.5081502199172974,0.4960348069667816,0.572047907114029,0.23081263899803162,0.3705023229122162,-0.018246144148315505,0.02144784485514996,0.025742073494053257,0.471875,0.19791666666666666,-4,-3.0,1781103063533,5.696585416793823,0,0,0,HeadStill1,4,10,1
171,pong_constant_velocity,0.44685834646224976,0.504878044128418,0.549168586730957,0.5075773000717163,0.4960507810115814,0.5718825101852417,0.23079413175582886,0.3708301782608032,-0.018347230676615145,0.0215393463117725,0.0274244761695393,0.465625,0.19166666666666668,-4,-3.0,1781103063566,5.730969190597534,0,0,0,HeadStill1,4,10,1
172,pong_constant_velocity,0.44688063859939575,0.5040806531906128,0.5491011738777161,0.5068084001541138,0.49605717658996584,0.5716626524925232,0.23086190223693848,0.3713114261627197,-0.01844485983238752,0.022231864404167734,0.027608654806764683,0.459375,0.18541666666666667,-4,-3.0,1781103063628,5.792744398117065,0,0,0,HeadStill1,4,10,1
173,pong_constant_velocity,0.44690650701522827,0.5037403702735901,0.5490513443946838,0.5065305829048157,0.4960444688796997,0.5715625941753387,0.2309446930885315,0.3713047206401825,-0.018713372110579416,0.02233801343439186,0.028232512089282173,0.453125,0.17916666666666667,-4,-3.0,1781103063661,5.827925443649292,0,0,0,HeadStill1,4,10,1
174,pong_constant_velocity,0.4469345510005951,0.5035528540611267,0.5487694144248962,0.5062911510467529,0.49601214528083803,0.571395093202591,0.23095327615737915,0.37137970328330994,-0.01889901111115986,0.022564937344695855,0.02704742162201628,0.446875,0.17291666666666666,-4,-3.0,1781103063708,5.8742287158966064,0,0,0,HeadStill1,4,10,1
175,pong_constant_velocity,0.4469457268714905,0.5034862160682678,0.548693060874939,0.5062231421470642,0.4959984004497528,0.5713560879230499,0.23095569014549255,0.37139806151390076,-0.018989463567542372,0.0225721672941316,0.027016696549156144,0.440625,0.16666666666666666,-4,-3.0,1781103063727,5.89375638961792,0,0,0,HeadStill1,4,10,1
176,pong_constant_velocity,0.4469594955444336,0.5033597350120544,0.5486167669296265,0.5060561895370483,0.4959860920906067,0.5712933778762818,0.23097878694534302,0.3715105652809143,-0.01912452605439591,0.02256128073663149,0.026818804837288584,0.434375,0.16041666666666668,-4,-3.0,1781103063758,5.924346685409546,0,0,0,HeadStill1,4,10,1
177,pong_constant_velocity,0.446962833404541,0.5033243894577026,0.5485280156135559,0.5059956908226013,0.49596611261367796,0.5712571203708648,0.23100250959396362,0.3715299069881439,-0.019137914618693103,0.02245554577376524,0.02656664103861744,0.428125,0.15416666666666667,-4,-3.0,1781103063775,5.93947434425354,0,0,0,HeadStill1,4,10,1
178,pong_constant_velocity,0.4468687176704407,0.5032320618629456,0.5484067797660828,0.5058368444442749,0.4958919703960419,0.5711925148963928,0.2310166358947754,0.37138843536376953,-0.019857495815074813,0.022791221249573092,0.026215059120789207,0.421875,0.14791666666666667,-4,-3.0,1781103063805,5.969762802124023,0,0,0,HeadStill1,4,10,1
